     3.04           OBSERVATION DATA    M: Mixed            RINEX VERSION / TYPE
Geo++ RINEX Logger  Geo++               20250326 171714 UTC PGM / RUN BY / DATE
************************************************************COMMENT
This file was generated by the Geo++ RINEX Logger App       COMMENT
for Android devices (Version 2.1.8). If you encounter       COMMENT
any issues, please send an email to android@geopp.de        COMMENT
Filtering Mode: BEST                                        COMMENT
************************************************************COMMENT
Hardware:       Broadcom, BCM4776, GLL ver. 154.20.24 616640COMMENT
Geo++                                                       MARKER NAME
GEODETIC                                                    MARKER TYPE
Geo++               Geo++                                   OBSERVER / AGENCY
NA                  NA                  NA                  REC # / TYPE / VERS
NA                  NA                                      ANT # / TYPE
  3741344.0027   669769.2604  5104833.6260                  APPROX POSITION XYZ
        0.0000        0.0000        0.0000                  ANTENNA: DELTA H/E/N
G    8 C1C L1C D1C S1C C5Q L5Q D5Q S5Q                      SYS / # / OBS TYPES
R    4 C1C L1C D1C S1C                                      SYS / # / OBS TYPES
E   12 C1B L1B D1B S1B C1C L1C D1C S1C C5Q L5Q D5Q S5Q      SYS / # / OBS TYPES
C   12 C2I L2I D2I S2I C1D L1D D1D S1D C5P L5P D5P S5P      SYS / # / OBS TYPES
J    8 C1C L1C D1C S1C C5Q L5Q D5Q S5Q                      SYS / # / OBS TYPES
  2025     3    26    17    17   32.0002690     GPS         TIME OF FIRST OBS
 24 R01  1 R02 -4 R03  5 R04  6 R05  1 R06 -4 R07  5 R08  6 GLONASS SLOT / FRQ #
    R09 -2 R10 -7 R11  0 R12 -1 R13 -2 R14 -7 R15  0 R16 -1 GLONASS SLOT / FRQ #
    R17  4 R18 -3 R19  3 R20  2 R21  4 R22 -3 R23  3 R24  2 GLONASS SLOT / FRQ #
G L1C                                                       SYS / PHASE SHIFT
G L5Q -0.25000                                              SYS / PHASE SHIFT
R L1C                                                       SYS / PHASE SHIFT
E L1B                                                       SYS / PHASE SHIFT
E L1C +0.50000                                              SYS / PHASE SHIFT
E L5Q -0.25000                                              SYS / PHASE SHIFT
C L2I                                                       SYS / PHASE SHIFT
J L1C                                                       SYS / PHASE SHIFT
J L5Q -0.25000                                              SYS / PHASE SHIFT
 C1C    0.000 C1P    0.000 C2C    0.000 C2P    0.000        GLONASS COD/PHS/BIS
                                                            END OF HEADER
> 2025  3 26 17 17 32.0002690  0 22
G32  22124965.805   116267479.6571        303.977          41.600    22124982.593                         227.073          21.165  
G01                                                                  20805079.443                        1419.454          20.081  
G03                                                                  22480640.776                        2636.192          17.987  
G08  21846391.458   114803561.2081      -2753.068          36.894    21846419.638                       -2053.746          24.518  
G10  23314128.265   122516570.4651      -2838.734          46.905    23314139.357    91489689.8701      -2120.024          34.360  
G27                                                                  24695381.543                       -2804.631          25.983  
G14  23275905.026   122315706.0291       -309.548          37.493    23275924.513    91339726.9911       -231.438          39.385  
E18                                                                                                                                  17797738.382                         448.013          22.057  
E03                                                                  25210224.125   132480621.0561        213.945          38.206    25210242.712                         157.231          18.188  
E21                                                                  26753161.172   140588810.6871      -2393.072          27.364    26753174.663                       -1787.393          18.189  
E23                                                                  26221185.751   137793260.3141       -107.159          29.623    26221202.539   102897630.4081        -80.042          33.809  
E08                                                                  25770009.194   135422312.2211       2772.220          43.208    25770026.582   101127118.8411       2070.562          28.256  
E26                                                                                                                                  26245579.863   102993292.2651       1940.846          30.842  
E13                                                                  23323145.722   122563957.3211        603.213          34.261    23323161.911                         450.062          26.868  
E15                                                                  25031736.689   131542663.2721      -1813.463          38.157    25031746.283                       -1355.801          16.123  
C32  24798640.558   129133028.2541       3474.829          33.304                                                                    24798659.445    97315266.1851       2617.115          28.060  
C33  23989435.060   124919283.5531      -2156.223          42.070                                                                    23989474.932    94139852.0031      -1624.667          31.444  
C41  22239822.891   115808593.4141        827.040          40.751                                                                    22239844.776                         623.694          25.680  
C27                                                                                                                                  21564028.034                        -491.835          19.452  
C28  24002769.229   124988717.6161      -2712.761          43.553                                                                    24002788.116    94192095.5351      -2044.663          23.337  
C13  40124634.194   208939499.2941       -901.230          41.933                                                                                                                                  
C30                                                                                                                                  22939521.999    90019611.0581       1736.630          28.337  
> 2025  3 26 17 17 33.0002691  0 22
G32  22124936.125   116267333.396         146.590          43.701    22124954.713                         109.326          22.843  
G01                                                                  20804740.978                        1305.058          20.848  
G03                                                                  22479996.522                        2519.192          20.913  
G08  21846944.575   114806471.461       -2909.827          37.778    21846971.556                       -2172.437          21.956  
G10  23314698.170   122519566.386       -2994.842          47.154    23314708.963    91491927.123       -2236.977          33.933  
G27  24696098.347   129778872.3251      -3912.669          33.071    24696127.727    96912903.8591      -2922.538          29.285  
G14  23275998.262   122316173.099        -467.037          37.749    23276014.151    91340075.713        -348.432          40.105  
E18                                                                                                                                  17797653.841                         330.633          21.322  
E03                                                                  25210217.829   132480564.343          57.308          41.058    25210231.920                          38.728          13.136  
E21                                                                                                                                  26753660.027                       -1904.162          20.432  
E23                                                                  26221244.210   137793525.190        -264.869          27.886    26221252.904   102897828.139        -197.180          34.301  
E08                                                                  25769513.937   135419697.265        2615.346          42.572    25769527.727   101125166.172        1952.778          32.580  
E26                                                                                                                                  26245115.784   102991468.975        1823.924          30.298  
E13                                                                  23323059.082   122563511.088         446.934          34.244    23323075.871    91524763.1731        333.884          29.700  
E15                                                                  25032109.631   131544633.989       -1969.940          40.081    25032123.122                       -1471.072          20.391  
C32  24797990.309   129129711.218        3317.789          32.257                                                                    24798022.087    97312766.078        2500.179          25.465  
C33  23989878.453   124921595.638       -2311.600          40.938                                                                    23989918.625    94141594.511       -1742.262          30.659  
C41  22239694.580   115807922.429         671.681          41.312                                                                    22239715.565    87273422.2881        506.293          27.185  
C27                                                                                                                                  21564181.528    84622486.3681       -608.334          24.008  
C28  24003319.348   124991586.352       -2868.098          43.978                                                                    24003337.335    94194257.390       -2161.941          27.013  
C13  40124836.554   208940555.983       -1055.960          41.332                                                                                                                                  
C30                                                                                                                                  22939109.785    90017991.424        1620.176          28.699  
> 2025  3 26 17 17 34.0002693  0 22
G32  22124934.327   116267344.581         -10.803          42.197    22124956.811    86823083.0001         -7.911          26.311  
G01                                                                  20804440.585    81641094.6131       1186.661          30.850  
G03                                                                  22479387.044    88213939.4351       2402.766          25.450  
G08  21847528.870   114809538.766       -3066.469          36.866    21847555.852                       -2290.141          19.477  
G10  23315296.856   122522719.305       -3152.551          46.035    23315310.047    91494281.505       -2353.518          34.451  
G27  24696871.512   129782942.783       -4069.321          36.085    24696901.491    96915943.255       -3037.715          25.352  
G14  23276121.476   122316797.440        -624.011          40.403    23276132.269    91340541.963        -466.085          41.014  
E18                                                                                                                                  17797598.979                         213.668          25.058  
E03                                                                  25210238.815   132480664.805        -100.116          41.616    25210250.807                         -78.307          16.913  
E23                                                                  26221310.464   137793947.227        -420.396          30.751    26221332.349   102898143.261        -314.848          36.196  
E08                                                                  25769042.663   135417239.275        2458.055          41.855    25769060.351   101123330.716        1835.553          32.069  
E26                                                                                                                                  26244680.486   102989762.814        1706.491          34.561  
E13                                                                  23323002.122   122563221.855         289.524          35.113    23323021.908    91524547.267         216.431          29.289  
E15                                                                                                                                  25032531.439    98233009.8031      -1589.949          24.761  
C32  24797381.430   129126549.167        3162.462          30.334                                                                    24797415.606                        2383.158          23.109  
C33  23990355.123   124924063.292       -2467.196          43.865                                                                    23990392.897    94143454.175       -1859.487          31.780  
C41  22239596.248   115807407.265         515.781          40.239                                                                    22239617.233    87273034.172         388.233          29.370  
C27                                                                                                                                  21564367.099    84623212.300        -725.598          25.258  
C28  24003903.044   124994610.674       -3023.990          43.172                                                                    24003916.834    94196536.401       -2278.652          27.493  
C13  40125071.591   208941767.910       -1211.265          41.963                                                                                                                                  
C30  22938711.660   119447890.2951       1993.861          37.482                                                                    22938726.950    90016488.985        1502.459          33.257  
C14  25868661.298   134704907.6141      -3324.806          39.710                                                                                                                                  
> 2025  3 26 17 17 35.0002694  0 22
G32  22124908.844   116267198.074         146.525          43.080    22124928.930    86822973.651         109.564          25.627  
G01                                                                  20804108.715    81639789.713        1304.979          33.181  
G03                                                                  22478745.189    88211418.785        2520.867          26.643  
G08                                                                  21848108.369                       -2172.625          24.968  
G10  23315870.059   122525714.104       -2994.666          45.661    23315879.952    91496517.923       -2236.089          34.034  
G27  24697617.395   129786854.983       -3912.188          35.448    24697645.276    96918864.937       -2921.385          28.827  
G14  23276209.615   122317264.183        -466.541          39.743    23276220.708    91340890.487        -348.339          40.724  
E18                                                                  17797499.747    93526491.4601        441.890          28.859    17797512.638                         329.818          29.973  
E03                                                                  25210228.622   132480607.487          57.514          41.292    25210241.813                          40.691          16.952  
E23                                                                  26221359.331                        -256.104          28.404    26221382.415   102898340.634        -197.407          36.573  
E08                                                                  25768544.108   135414623.324        2616.176          42.259    25768562.695   101121377.245        1953.481          29.813  
E26                                                                                                                                  26244215.508   102987938.503        1824.622          35.165  
E13                                                                  23322915.781   122562774.561         447.736          35.487    23322936.467    91524213.290         334.111          31.097  
E15                                                                  25032891.190   131548731.2361      -1969.292          40.583    25032905.880                       -1470.830          23.952  
C32  24796757.862   129123230.392        3319.054          37.989                                                                    24796777.648                        2500.935          25.525  
C33  23990798.216   124926374.585       -2311.184          43.486                                                                    23990836.889    94145195.927       -1741.887          32.101  
C41  22239466.738   115806735.950         671.384          39.157                                                                    22239488.323    87272528.187         506.012          29.817  
C27                                                                                                                                  21564521.492    84623820.422        -607.768          27.079  
C28  24004451.964   124997478.302       -2867.423          43.090                                                                    24004468.152    94198697.499       -2160.632          25.780  
C13  40125274.251   208942823.012       -1054.824          42.216                                                                                                                                  
C14  25869271.676   134708076.512       -3168.646          39.797                                                                                                                                  
C30  22938300.945   119445740.299        2150.215          37.423                                                                    22938314.136    90014868.762        1620.400          34.151  
> 2025  3 26 17 17 36.0002695  0 23
G32  22124883.362   116267051.640         146.138          43.455    22124901.050    86822864.293         109.199          26.170  
G01  20803750.763   109324447.7461       1747.543          35.869    20803776.545    81638484.652        1305.118          33.817  
G03                                                                  22478101.834    88208898.025        2520.530          31.097  
G08  21848645.298   114815357.6261      -2909.152          39.019    21848661.786    85738826.0341      -2172.987          25.535  
G10  23316437.266   122528708.516       -2994.381          45.685    23316449.558    91498754.050       -2236.393          34.118  
G27  24698359.082   129790766.723       -3912.039          34.424    24698389.061    96921785.949       -2921.187          28.861  
G14  23276294.756   122317730.997        -467.179          39.028    23276310.346    91341239.082        -348.986          40.847  
E18                                                                                                                                  17797428.696    69840901.1001        329.189          31.190  
E03                                                                  25210217.829   132480550.123          57.078          40.926    25210229.221                          42.025          16.885  
E21                                                                  26755126.012                       -2549.661          37.335                                                                  
E23                                                                  26221402.501                        -263.171          26.939    26221433.080   102898537.883        -197.523          36.845  
E08                                                                  25768045.853   135412007.064        2616.326          42.033    25768065.040   101119423.581        1953.224          29.365  
E26                                                                                                                                  26243751.129   102986113.820        1824.725          35.385  
E13                                                                  23322831.540   122562327.010         447.557          35.301    23322851.926    91523879.030         334.458          31.641  
E15                                                                  25033265.631   131550700.410       -1969.116          40.577    25033280.321    98235951.1121      -1470.716          24.560  
C32  24796122.302   129119911.376        3319.108          41.831                                                                    24796142.088    97305377.9721       2500.748          25.673  
C33  23991242.808   124928685.620       -2311.082          43.254                                                                    23991280.582    94146937.478       -1741.383          32.044  
C41  22239336.328   115806064.523         671.186          39.143                                                                    22239359.412    87272022.217         505.746          30.839  
C27                                                                                                                                  21564678.883    84624428.432        -607.936          27.968  
C28  24005002.682   125000345.607       -2867.298          42.679                                                                    24005019.771    94200858.217       -2160.577          25.176  
C13  40125477.810   208943877.451       -1054.159          41.927                                                                                                                                  
C14  25869879.355   134711244.929       -3168.310          39.745                                                                                                                                  
C30  22937887.831   119443590.052        2150.132          37.076                                                                    22937901.022    90013248.330        1620.379          34.290  
> 2025  3 26 17 17 37.0002696  0 23
G32  22124858.779   116266905.471         145.983          43.927    22124873.169    86822755.087         109.219          25.970  
G01                                                                  20803443.476    81637179.674        1304.839          33.760  
G03                                                                  22477459.678    88206377.105        2520.887          31.930  
G08  21849199.614   114818266.940       -2909.320          38.629    21849217.302    85740998.471       -2172.196          24.030  
G10  23317009.270   122531702.747       -2994.221          45.554    23317019.164    91500989.966       -2236.091          33.967  
G27  24699103.167   129794678.047       -3911.410          34.054    24699133.146    96924706.746       -2920.961          29.249  
G14  23276383.495   122318198.031        -467.087          39.174    23276399.084    91341587.809        -348.966          40.594  
E18                                                                                                                                  17797345.054    69840572.402         328.206          31.811  
E03                                                                  25210206.137   132480492.838          57.193          41.130    25210217.829                          41.959          17.337  
E21                                                                  26755611.376   140601684.9591      -2549.389          37.360                                                                  
E23                                                                  26221453.466   137794742.7871       -265.164          26.472    26221483.445   102898735.190        -197.272          36.794  
E08                                                                  25767549.697   135409390.727        2616.367          42.064    25767565.586   101117469.789        1953.624          28.461  
E26                                                                                                                                  26243285.551   102984288.938        1824.934          35.199  
E13                                                                  23322744.600   122561879.307         447.645          35.676    23322765.885    91523544.728         334.314          32.131  
E15                                                                  25033639.772   131552669.373       -1968.896          40.953    25033655.961    98237421.351       -1469.991          24.236  
C32  24795483.144   129116592.147        3319.354          41.492                                                                    24795502.931    97302876.481        2501.734          24.607  
C33  23991687.101   124930996.657       -2311.044          43.233                                                                    23991724.575    94148679.120       -1741.597          32.414  
C41  22239205.618   115805393.252         671.126          38.976                                                                    22239230.801    87271516.338         505.748          30.538  
C27                                                                                                                                  21564832.377    84625036.534        -608.076          28.409  
C28  24005556.999   125003212.783       -2867.085          43.057                                                                    24005570.190    94203018.902       -2160.220          24.434  
C13  40125679.270   208944931.536       -1053.833          41.889                                                                                                                                  
C30  22937474.417   119441439.720        2150.439          37.574                                                                    22937487.608    90011627.799        1620.579          34.444  
C14  25870487.934   134714413.187       -3168.315          39.729                                                                                                                                  
> 2025  3 26 17 17 38.0002697  0 23
G32  22124836.295   116266759.431         146.039          44.650    22124845.588    86822646.063         108.995          26.420  
G01                                                                  20803111.306    81635874.529        1305.194          33.799  
G03                                                                  22476818.123    88203856.017        2521.710          32.263  
G08                                                                  21849770.119    85743170.888       -2171.733          25.279  
G10  23317575.578   122534696.686       -2993.778          45.656    23317589.069    91503225.739       -2235.939          34.153  
G27  24699847.851   129798588.923       -3910.876          33.955    24699877.531    96927627.272       -2920.671          29.367  
G14  23276474.932   122318665.203        -467.105          38.898    23276488.123    91341936.640        -348.726          41.047  
E18                                                                                                                                  17797262.012    69840244.467         327.546          31.412  
E03                                                                  25210193.246   132480435.583          57.198          40.973    25210208.236                          42.863          18.115  
E21                                                                  26756098.538   140604234.130       -2548.958          37.503                                                                  
E23                                                                                                                                  26221534.110   102898932.563        -197.308          37.024  
E08                                                                  25767050.242   135406774.158        2616.665          42.023    25767067.630   101115515.842        1953.906          28.109  
E26                                                                                                                                  26242819.974   102982463.709        1825.631          35.401  
E13                                                                  23322658.559   122561431.387         448.025          35.501    23322681.044    91523210.206         334.940          32.267  
E15                                                                  25034016.911   131554637.994       -1968.359          41.102    25034031.001    98238891.497       -1470.081          24.117  
C32  24794847.584   129113272.653        3319.780          41.602                                                                    24794865.872    97300374.870        2502.434          24.598  
C33  23992132.892   124933307.583       -2310.847          43.511                                                                    23992168.268    94150420.634       -1741.402          32.358  
C41  22239080.005   115804722.028         671.196          38.988                                                                    22239100.991    87271010.498         505.781          30.408  
C27                                                                                                                                  21564986.471    84625644.575        -608.263          28.842  
C28  24006108.017   125006079.693       -2866.750          42.980                                                                    24006119.709    94205179.449       -2159.927          24.199  
C13  40125879.831   208945985.125       -1053.555          41.746                                                                                                                                  
C30                                                                                                                                  22937075.093    90010007.201        1620.722          34.160  
C14  25871096.812   134717581.086       -3167.653          40.185                                                                                                                                  
> 2025  3 26 17 17 39.0002698  0 23
G32  22124807.814   116266613.674         145.490          44.780    22124818.307    86822537.321         108.255          26.501  
G01                                                                  20802779.136    81634569.412        1305.276          33.882  
G03  22476154.682   118112989.3931       3376.092          40.667    22476174.768    88201334.950        2521.218          32.367  
G08                                                                  21850323.236    85745343.417       -2172.324          25.902  
G10  23318146.383   122537690.426       -2993.566          45.399    23318158.974    91505461.301       -2235.640          34.130  
G27  24700592.236   129802499.473       -3910.267          34.375    24700621.316    96930547.436       -2919.793          29.267  
G14  23276565.169   122319132.618        -467.586          38.483    23276576.561    91342285.717        -349.276          40.871  
E18                                                                                                                                  17797178.370    69839917.429         326.446          31.369  
E03                                                                  25210182.154   132480378.410          57.154          41.146    25210195.645                          42.844          13.064  
E21                                                                  26756583.603   140606783.211       -2549.201          37.328                                                                  
E23                                                                                                                                  26221584.475   102899130.019        -197.585          37.180  
E08                                                                  25766549.889   135404157.499        2616.559          41.689    25766570.574   101113561.850        1953.795          28.615  
E26                                                                                                                                  26242354.996   102980638.366        1825.222          35.406  
E13                                                                  23322571.919   122560983.308         448.273          35.552    23322595.603    91522875.660         334.588          32.299  
E15                                                                  25034389.553   131556606.438       -1968.539          41.052    25034405.442    98240361.424       -1470.008          24.830  
C32  24794207.827   129109952.958        3319.707          41.065                                                                    24794227.314    97297873.190        2501.653          24.524  
C33  23992575.386   124935618.470       -2310.969          43.632                                                                    23992611.960    94152162.149       -1741.461          32.088  
C41  22238950.795   115804050.966         670.842          39.012                                                                    22238972.979    87270504.843         505.372          30.389  
C27                                                                                                                                  21565141.763    84626252.603        -607.832          28.126  
C28  24006657.537   125008946.423       -2866.629          42.941                                                                    24006671.927    94207339.951       -2160.932          24.595  
C13  40126079.793   208947038.247       -1053.039          41.620                                                                                                                                  
C14  25871706.290   134720748.791       -3167.678          40.404                                                                                                                                  
C30                                                                                                                                  22936662.279    90008386.542        1620.677          34.453  
> 2025  3 26 17 17 40.0002699  0 23
G32  22124780.233   116266468.363         145.010          45.104    22124791.026    86822428.755         107.827          26.414  
G01                                                                  20802446.366    81633264.465        1304.829          34.003  
G03  22475511.627   118109613.399        3375.885          40.329    22475532.912    88198813.974        2520.595          32.192  
G08                                                                  21850877.252    85747516.048       -2172.710          25.852  
G10  23318715.989   122540684.188       -2993.624          45.250    23318728.880    91507696.918       -2235.706          34.122  
G27  24701340.818   129806409.928       -3910.167          34.126    24701365.101    96933467.582       -2919.897          29.662  
G14  23276642.815   122319600.477        -468.073          37.793    23276666.499    91342635.112        -349.745          40.850  
E18                                                                                                                                  17797095.327    69839591.403         325.067          31.294  
E03                                                                  25210167.164   132480321.610          56.529          41.252    25210185.152                          41.772          18.500  
E21                                                                  26757066.568   140609332.335       -2549.295          36.760    26757089.952   105000567.4731      -1903.577          33.817  
E23                                                                                                                                  26221634.540   102899327.712        -197.992          37.051  
E08                                                                  25766053.432   135401540.948        2616.532          41.650    25766072.919   101111607.971        1953.733          28.220  
E26                                                                  26241866.034   137901935.8491       2444.742          30.129    26241890.018   102978812.893        1825.291          35.274  
E13                                                                  23322486.479   122560535.375         447.749          35.951    23322510.762    91522541.115         334.731          32.035  
E15                                                                  25034765.193   131558574.851       -1968.435          41.111    25034780.182    98241831.346       -1469.895          25.657  
C32  24793571.368   129106633.322        3319.600          41.098                                                                    24793589.955    97295371.625        2501.008          24.372  
C33  23993017.879   124937929.573       -2311.190          43.306                                                                    23993055.653    94153903.799       -1741.639          32.360  
C41  22238820.985   115803380.278         670.564          39.025                                                                    22238844.368    87269999.420         504.903          30.543  
C27                                                                                                                                  21565297.655    84626860.927        -608.157          28.328  
C28  24007206.757   125011813.231       -2866.856          42.576                                                                    24007222.646    94209500.273       -2160.031          24.613  
C13  40126282.453   208948091.169       -1052.899          41.245                                                                                                                                  
C14  25872314.869   134723916.458       -3167.682          40.367                                                                                                                                  
C30                                                                                                                                  22936249.465    90006765.966        1620.496          34.573  
> 2025  3 26 17 17 41.0002701  0 23
G32  22124786.529   116266480.974         -12.841          45.392    22124792.525    86822438.227         -10.000          25.490  
G01  20802127.986   109315867.3091       1589.803          36.270    20802143.576    81632077.213        1187.348          33.709  
G03  22474898.252   118106394.943        3218.637          40.280    22474920.436    88196410.518        2403.725          32.157  
G08                                                                  21851461.548    85749806.397       -2290.505          25.555  
G10  23319318.272   122543835.425       -3151.147          45.316    23319327.865    91510050.106       -2353.193          33.664  
G27  24702116.680   129810477.747       -4067.637          34.553    24702139.165    96936505.216       -3037.364          29.194  
G14  23276763.332   122320226.248        -625.926          37.661    23276785.217    91343102.391        -467.459          40.910  
E18                                                                  17797028.773    93524018.4521        277.148          29.793    17797043.163    69839383.939         206.872          31.526  
E03                                                                  25210187.550   132480422.545        -100.943          41.218    25210206.437                         -75.220          16.271  
E21                                                                  26757582.211   140612038.978       -2706.926          36.286    26757605.595   105002588.632       -2021.049          34.547  
E23                                                                                                                                  26221714.885   102899643.206        -315.732          36.738  
E08                                                                  25765585.756   135399081.946        2459.045          41.936    25765604.643   101109771.675        1835.990          28.516  
E26                                                                  26241434.633   137899648.634        2287.442          30.443    26241454.419   102977104.900        1707.890          35.082  
E13                                                                  23322431.017   122560244.949         290.277          35.458    23322456.200    91522324.276         216.778          32.015  
E15                                                                  25035168.713   131560700.721       -2125.751          41.025    25035184.902    98243418.857       -1587.630          25.405  
C32  24792958.292   129103469.726        3163.668          40.635                                                                    24792983.475    97292987.343        2384.552          24.936  
C33  23993490.652   124940396.872       -2467.411          42.996                                                                    23993529.025    94155763.179       -1859.507          32.488  
C41  22238721.453   115802865.997         514.083          39.146                                                                    22238745.737    87269611.818         387.295          30.230  
C27                                                                                                                                  21565482.627    84627587.027        -725.989          28.116  
C28  24007785.656   125014836.086       -3022.761          42.494                                                                    24007801.845    94211778.368       -2277.938          23.820  
C13  40126514.492   208949299.924       -1208.511          41.016                                                                                                                                  
C30                                                                                                                                  22935866.030    90005263.052        1503.142          34.460  
C14  25872953.127   134727240.102       -3323.554          40.700                                                                                                                                  
> 2025  3 26 17 17 42.0002702  0 23
G32  22124752.952   116266336.369         144.176          45.133    22124765.244    86822330.271         107.203          25.575  
G01  20801798.215   109314119.947        1747.034          36.623    20801811.106    81630772.331        1304.941          33.560  
G03  22474257.295   118103018.924        3376.015          40.192    22474277.981    88193889.515        2520.944          32.027  
G08  21851999.675   114832971.4081      -2909.941          39.186    21852014.965    85751979.079       -2172.779          24.845  
G10  23319883.980   122546829.012       -2993.849          45.175    23319897.771    91512285.549       -2235.580          33.925  
G27  24702862.264   129814387.702       -3909.953          34.860    24702883.550    96939425.029       -2920.149          29.294  
G14  23276855.968   122320694.785        -469.033          37.995    23276874.555    91343452.278        -350.217          40.810  
E18                                                                  17796955.024    93523584.312         433.217          30.605    17796960.421    69839059.701         323.667          31.588  
E03                                                                  25210175.858   132480366.122          56.113          41.363    25210190.848                          42.292          19.654  
E21                                                                  26758073.271   140614588.017       -2549.367          36.552    26758090.659   105004492.145       -1903.507          34.808  
E23                                                                                                                                  26221765.549   102899841.165        -198.139          36.952  
E08                                                                  25765086.901   135396465.358        2616.497          41.891    25765106.688   101107817.740        1953.660          28.708  
E26                                                                                                                                  26240989.441   102975279.090        1825.910          35.206  
E13                                                                  23322346.476   122559796.913         447.883          35.787    23322369.560    91521989.733         334.175          32.173  
E15                                                                  25035544.054   131562668.886       -1968.227          40.811    25035559.643    98244888.530       -1469.625          25.163  
C32  24792321.833   129100149.891        3319.731          40.742                                                                    24792346.716    97290485.517        2502.043          24.503  
C33  23993934.345   124942708.107       -2311.437          42.998                                                                    23993972.718    94157504.927       -1741.777          32.620  
C41  22238590.744   115802195.805         669.884          38.914                                                                    22238617.426    87269106.739         504.948          30.126  
C27                                                                                                                                  21565637.920    84628195.493        -608.093          28.879  
C28  24008336.375   125017702.756       -2866.759          42.465                                                                    24008351.964    94213938.628       -2159.686          24.727  
C13  40126716.252   208950352.225       -1052.250          40.948                                                                                                                                  
C30  22935442.723   119430843.6441       2150.182          37.501                                                                    22935453.216    90003642.570        1620.276          34.372  
C14  25873563.505   134730407.497       -3167.404          41.239                                                                                                                                  
> 2025  3 26 17 17 43.0002703  0 23
G32  22124723.273   116266192.272         143.854          44.684    22124736.464    86822222.634         107.014          26.069  
G01  20801463.347   109312372.820        1747.129          36.661    20801478.636    81629467.702        1304.503          33.797  
G03  22473617.239   118099643.083        3375.782          40.617    22473635.226    88191368.569        2520.879          32.258  
G08                                                                  21852568.981    85754152.077       -2173.013          25.337  
G10  23320453.886   122549822.651       -2993.815          44.997    23320467.376    91514521.085       -2235.622          33.892  
G27  24703607.548   129818297.595       -3909.822          34.630    24703627.035    96942344.704       -2919.531          29.378  
G14  23276942.908   122321163.827        -469.300          37.844    23276963.893    91343802.534        -350.531          40.872  
E18                                                                                                                                  17796877.678    69838736.565         322.575          31.323  
E03                                                                  25210165.366   132480310.078          55.935          41.375    25210180.056                          44.017          16.733  
E21                                                                  26758554.438   140617137.171       -2549.226          36.864    26758575.424   105006395.702       -1903.319          34.684  
E23                                                                                                                                  26221815.915   102900039.458        -198.676          37.124  
E08                                                                  25764588.646   135393848.962        2616.509          42.076    25764608.133   101105863.921        1953.621          28.780  
E26                                                                                                                                  26240524.163   102973453.306        1825.715          35.422  
E13                                                                  23322261.634   122559349.027         447.924          35.724    23322284.418    91521655.243         334.417          31.881  
E15                                                                  25035917.595   131564637.124       -1968.150          40.772    25035934.083    98246358.323       -1469.771          26.093  
C32  24791682.375   129096830.152        3319.880          40.474                                                                    24791706.958    97287983.791        2501.604          24.522  
C33  23994376.839   124945019.613       -2311.620          42.776                                                                    23994417.011    94159246.876       -1741.846          32.370  
C41  22238464.831   115801526.042         669.640          38.977                                                                    22238488.815    87268601.989         504.674          30.082  
C27                                                                                                                                  21565793.212    84628804.272        -608.557          28.339  
C28  24008886.794   125020569.549       -2866.750          42.456                                                                    24008902.083    94216099.124       -2160.817          24.272  
C13  40126919.512   208951404.404       -1052.140          41.211                                                                                                                                  
C30  22935025.113   119428693.479        2149.929          37.102                                                                    22935040.402    90002022.180        1620.216          34.386  
C14  25874169.985   134733574.958       -3167.461          41.695                                                                                                                                  
> 2025  3 26 17 17 44.0002704  0 23
G32  22124699.589   116266048.633         143.318          44.356    22124709.782    86822115.335         106.537          26.419  
G01  20801132.676   109310625.865        1746.943          36.732    20801146.166    81628163.134        1304.693          33.971  
G03  22472978.980   118096267.311        3375.596          40.987    22472992.471    88188847.730        2520.764          32.476  
G08                                                                  21853124.197    85756325.219       -2174.445          26.284  
G10  23321026.190   122552816.264       -2993.690          45.013    23321037.282    91516756.585       -2235.688          33.799  
G27  24704356.430   129822207.326       -3909.696          34.066    24704371.120    96945264.327       -2919.691          29.023  
G14  23277031.047   122321633.303        -469.812          37.944    23277052.932    91344153.092        -350.681          40.788  
E18                                                                                                                                  17796795.835    69838414.401         321.684          31.363  
E03                                                                  25210157.271   132480254.336          55.529          41.395    25210166.865                          41.925          16.898  
E21                                                                  26759045.798   140619686.371       -2549.284          37.144    26759060.488   105008299.290       -1903.369          34.749  
E23                                                                  26221848.892   137796755.0011       -265.906          27.635    26221866.280   102900237.891        -198.440          37.184  
E08                                                                  25764091.291   135391232.631        2616.255          41.919    25764110.477   101103910.128        1953.842          29.222  
E26                                                                                                                                  26240058.585   102971627.404        1825.782          35.110  
E13                                                                  23322177.093   122558901.195         447.659          35.586    23322199.877    91521320.837         334.140          32.011  
E15                                                                  25036290.537   131566605.326       -1968.316          40.647    25036308.524    98247828.108       -1469.840          25.778  
C32  24791050.713   129093510.439        3319.625          40.512                                                                    24791070.199    97285482.071        2501.585          24.856  
C33  23994821.131   124947331.268       -2311.828          42.768                                                                    23994860.404    94160988.996       -1742.387          32.888  
C41  22238336.520   115800856.638         669.015          38.915                                                                    22238360.503    87268097.582         504.013          30.256  
C27                                                                                                                                  21565947.305    84629413.299        -609.186          28.767  
C28  24009436.313   125023436.353       -2866.973          42.534                                                                    24009454.001    94218259.435       -2159.575          24.089  
C13  40127122.171   208952456.324       -1051.951          41.186                                                                                                                                  
C30  22934605.703   119426543.414        2149.819          36.887                                                                    22934627.588    90000401.847        1620.456          34.671  
C14  25874776.765   134736742.342       -3167.372          41.342                                                                                                                                  
> 2025  3 26 17 17 45.0002705  0 23
G32  22124668.411   116265905.522         142.675          44.394    22124683.400    86822008.404         106.631          26.417  
G01  20800794.510   109308879.276        1746.093          36.810    20800813.996    81626858.783        1304.256          33.962  
G03                                                                  22472350.316    88186326.900        2520.519          32.205  
G08                                                                  21853677.614    85758498.247       -2172.597          25.479  
G10  23321593.996   122555810.009       -2993.975          45.586    23321606.588    91518992.131       -2235.856          34.159  
G27  24705095.718   129826117.002       -3909.706          35.679    24705114.605    96948183.766       -2919.149          28.664  
G14  23277121.584   122322103.404        -470.484          38.599    23277141.970    91344504.031        -351.267          40.323  
E18                                                                                                                                  17796714.291    69838093.330         320.251          31.391  
E03                                                                  25210146.779   132480198.974          54.988          41.090    25210156.372                          41.571          16.354  
E21                                                                  26759533.860   140622235.825       -2550.248          36.554    26759545.552   105010202.988       -1903.759          34.975  
E23                                                                  26221901.955   137797021.295        -266.863          30.105    26221917.544   102900436.627        -199.022          37.824  
E08                                                                  25763594.235   135388616.439        2615.927          42.404    25763612.822   101101956.499        1953.313          29.048  
E26                                                                                                                                  26239593.008   102969801.400        1825.959          34.946  
E13                                                                  23322093.151   122558453.556         447.269          36.152    23322114.736    91520986.452         334.312          31.840  
E15                                                                  25036664.378   131568573.588       -1968.474          40.457    25036683.565    98249297.896       -1469.875          25.644  
C32  24790411.555   129090190.769        3319.505          40.631                                                                    24790431.641    97282980.352        2501.490          25.320  
C33  23995263.924   124949643.203       -2312.319          43.333                                                                    23995304.396    94162731.222       -1742.795          32.279  
C41  22238204.611   115800187.690         668.391          39.975                                                                    22238231.593    87267593.359         504.013          30.180  
C27                                                                                                                                  21566103.497    84630022.438        -609.301          28.648  
C28  24009990.629   125026303.253       -2867.133          43.503                                                                    24010004.420    94220419.929       -2160.025          23.103  
C13  40127323.632   208953508.123       -1052.127          41.769                                                                                                                                  
C14  25875387.742   134739909.809       -3167.817          41.790                                                                                                                                  
C30  22934199.784   119424393.528        2149.541          38.212                                                                    22934214.174    89998781.682        1619.877          34.401  
> 2025  3 26 17 17 46.0002706  0 23
G32  22124638.432   116265763.068         142.183          45.284    22124656.119    86821902.035         106.394          26.093  
G01  20800460.241   109307132.998        1745.978          38.864    20800481.826    81625554.766        1303.954          33.972  
G03                                                                  22471708.160    88183806.417        2520.579          32.245  
G08                                                                  21854231.031    85760671.965       -2173.632          25.388  
G10  23322165.401   122558803.895       -2993.768          46.455    23322175.894    91521227.857       -2235.840          34.112  
G27  24705837.405   129830026.793       -3909.979          38.279    24705860.489    96951103.493       -2919.882          28.385  
G14  23277213.321   122322574.010        -470.783          39.859    23277232.207    91344855.504        -351.635          40.602  
E18                                                                                                                                  17796632.448    69837773.416         319.226          31.747  
E03                                                                  25210135.986   132480144.176          54.379          41.649    25210146.179                          40.901          17.572  
E21                                                                                                                                  26760030.616   105012106.967       -1904.294          34.870  
E23                                                                  26221950.521   137797287.926        -266.602          33.291    26221967.010   102900635.796        -199.175          37.712  
E08                                                                  25763095.980   135386000.591        2615.699          43.276    25763115.766   101100003.104        1952.969          29.144  
E26                                                                                                                                  26239128.030   102967975.627        1825.526          34.757  
E13                                                                  23322008.010   122558006.147         447.209          37.748    23322029.295    91520652.397         333.959          32.207  
E15                                                                  25037037.020   131570542.048       -1968.581          41.242    25037058.005    98250767.901       -1470.261          25.737  
C32  24789777.194   129086871.401        3319.206          41.481                                                                    24789795.482    97280478.725        2501.875          25.275  
C33  23995712.114   124951955.512       -2312.632          44.493                                                                    23995748.389    94164473.720       -1742.338          32.617  
C41  22238079.598   115799519.262         668.089          41.687                                                                    22238102.382    87267089.629         503.579          29.829  
C27                                                                                                                                  21566259.090    84630632.076        -609.486          27.892  
C28  24010542.847   125029170.459       -2867.556          45.016                                                                    24010553.640    94222580.743       -2161.094          23.915  
C13  40127527.791   208954559.917       -1051.872          42.405                                                                                                                                  
C30  22933781.274   119422244.002        2149.240          39.903                                                                    22933801.659    89997161.817        1619.725          34.376  
C14  25875994.522   134743077.428       -3167.841          42.667                                                                                                                                  
> 2025  3 26 17 17 47.0002708  0 23
G32  22124643.828   116265778.885         -16.375          45.623    22124660.017    86821913.875         -12.018          25.023  
G01  20800161.048   109305544.692        1588.135          39.355    20800179.635    81624368.714        1185.651          33.503  
G03                                                                  22471095.984    88181403.832        2402.091          32.325  
G08  21854794.341   114847681.0381      -3068.924          41.522    21854816.226    85762963.502       -2291.496          25.345  
G10  23322765.885   122561955.670       -3151.927          46.515    23322775.778    91523581.387       -2353.665          34.005  
G27  24706612.668   129834094.184       -4067.740          38.381    24706633.953    96954140.802       -3037.798          28.986  
G14  23277331.139   122323202.953        -629.365          40.172    23277351.825    91345325.126        -470.027          40.473  
E18                                                                                                                                  17796580.883    69837572.313         200.582          31.736  
E03                                                                  25210158.770   132480247.436        -103.637          41.702    25210168.064                         -76.086          17.938  
E21                                                                                                                                  26760545.960   105014128.744       -2022.131          34.817  
E23                                                                  26222034.463   137797712.774        -425.164          34.606    26222049.153   102900953.052        -317.701          37.902  
E08                                                                  25762630.102   135383542.629        2457.618          43.574    25762647.490   101098167.615        1835.082          28.984  
E26                                                                  26238666.949   137885136.1471       2287.190          32.120    26238692.431   102966267.538        1707.697          34.859  
E13                                                                  23321955.846   122557716.623         289.205          38.108    23321974.133    91520436.167         215.929          31.707  
E15                                                                  25037442.939   131572668.298       -2126.489          41.309    25037462.725    98252355.624       -1587.943          25.254  
C32  24789168.316   129083708.393        3162.744          41.529                                                                    24789187.503    97278095.224        2383.035          25.862  
C33  23996187.885   124954424.359       -2469.242          44.887                                                                    23996222.661    94166334.296       -1860.773          32.901  
C41  22237980.966   115799007.572         511.099          42.255                                                                    22238004.950    87266704.039         385.007          29.931  
C27                                                                                                                                  21566443.462    84631359.710        -728.112          28.753  
C28  24011122.046   125032193.998       -3023.758          44.993                                                                    24011135.237    94224859.181       -2278.318          22.845  
C13  40127758.631   208955767.830       -1208.043          42.404                                                                                                                                  
C30  22933403.235   119420250.964        1992.798          40.160                                                                    22933419.424    89995659.835        1501.636          34.064  
C14  25876634.279   134746401.388       -3324.143          42.935                                                                                                                                  
> 2025  3 26 17 17 48.0002709  0 23
G32  22124616.547   116265638.438         139.150          45.687    22124632.735    86821808.983         103.557          25.688  
G01  20799828.878   109303799.922        1743.671          39.395    20799846.866    81623065.750        1302.357          33.619  
G03                                                                  22470454.428    88178884.222        2519.212          32.517  
G08  21855351.655   114850593.268       -2913.141          41.923    21855368.443    85765138.188       -2175.018          24.811  
G10  23323335.191   122564950.721       -2996.178          46.442    23323345.084    91525817.943       -2236.926          34.287  
G27  24707356.153   129838004.713       -3911.155          38.711    24707377.738    96957060.969       -2920.525          28.760  
G14  23277418.379   122323675.597        -474.145          40.047    23277442.062    91345678.039        -353.589          40.461  
E18                                                                  17796482.551    93521146.3621        423.268          34.543    17796500.539    69837255.197         316.393          31.555  
E03                                                                  25210148.577   132480194.306          52.012          41.863    25210159.969                          40.132          19.671  
E21                                                                                                                                  26761031.324   105016033.539       -1905.272          34.907  
E23                                                                  26222085.128   137797981.240        -269.846          35.246    26222100.118   102901153.469        -201.175          37.876  
E08                                                                  25762131.248   135380928.047        2613.606          43.629    25762150.135   101096215.214        1951.178          29.219  
E26                                                                                                                                  26238227.753   102964442.345        1824.687          35.049  
E13                                                                  23321869.206   122557270.494         444.801          38.071    23321889.292    91520102.933         332.866          31.517  
E15                                                                  25037811.983   131574637.817       -1970.563          41.005    25037837.766    98253826.369       -1471.256          25.739  
C32  24788532.456   129080390.115        3317.483          41.720                                                                    24788551.943    97275594.491        2500.140          25.235  
C33  23996631.877   124956738.107       -2314.894          44.973                                                                    23996667.553    94168077.971       -1744.655          33.160  
C41  22237854.754   115798340.930         665.520          42.366                                                                    22237876.339    87266201.663         501.372          29.769  
C27                                                                                                                                  21566598.754    84631970.410        -610.817          28.394  
C28  24011670.966   125035062.343       -2869.215          44.902                                                                    24011685.656    94227020.741       -2161.301          23.561  
C13  40127961.290   208956820.276       -1053.483          42.400                                                                                                                                  
C14  25877242.858   134749570.048       -3169.673          42.845                                                                                                                                  
C30  22932990.721   119418102.781        2147.138          40.341                                                                    22933005.711    89994040.943        1618.321          33.953  
> 2025  3 26 17 17 49.0002710  0 23
G32  22124594.362   116265500.164         136.764          45.778    22124605.454    86821705.703         102.500          26.457  
G01  20799497.607   109302057.045        1741.590          39.383    20799515.595    81621764.268        1300.768          33.710  
G03                                                                  22469812.273    88176366.086        2517.315          32.397  
G08  21855907.170   114853507.429       -2915.271          41.803    21855922.460    85767314.470       -2177.522          25.338  
G10  23323899.400   122567947.499       -2998.173          45.910    23323915.289    91528055.817       -2238.812          34.422  
G27  24708103.536   129841916.910       -3913.045          39.664    24708122.423    96959982.417       -2922.284          29.289  
G14  23277508.017   122324150.418        -476.450          39.752    23277531.101    91346032.643        -355.563          40.597  
E18                                                                  17796401.608    93520724.790         419.979          34.730    17796420.494    69836940.483         313.432          31.172  
E03                                                                  25210138.684   132480143.238          49.733          42.262    25210150.676                          38.631          19.446  
E21                                                                                                                                  26761516.987   105017939.752       -1907.231          35.000  
E23                                                                  26222137.892   137798251.684        -271.702          35.563    26222151.382   102901355.474        -203.022          37.729  
E08                                                                  25761635.691   135378315.310        2611.573          43.618    25761653.978   101094264.110        1950.116          28.870  
E26                                                                                                                                  26237763.075   102962618.399        1823.217          34.960  
E13                                                                  23321787.063   122556826.131         442.885          37.889    23321804.451    91519771.194         330.570          32.215  
E15                                                                  25038187.324   131576609.056       -1972.545          41.055    25038212.806    98255298.387       -1472.899          25.380  
C32  24787892.099   129077073.597        3315.475          41.622                                                                    24787914.884    97273095.189        2498.513          25.712  
C33  23997075.570   124959053.732       -2316.898          45.119                                                                    23997112.145    94169823.052       -1746.174          33.018  
C41  22237725.843   115797676.396         663.062          42.405                                                                    22237749.227    87265700.851         499.917          29.925  
C27                                                                                                                                  21566754.347    84632582.806        -613.444          29.069  
C28  24012222.284   125037932.435       -2871.256          45.012                                                                    24012237.274    94229183.666       -2162.917          24.549  
C13  40128162.751   208957874.218       -1055.101          42.558                                                                                                                                  
C30  22932580.605   119415956.433        2145.154          40.474                                                                    22932593.496    89992423.472        1616.454          33.950  
C14  25877850.837   134752740.410       -3171.491          42.718                                                                                                                                  
> 2025  3 26 17 17 50.0002711  0 23
G32  22124570.379   116265364.604         134.208          46.050    22124580.272    86821604.524         100.015          25.810  
G01  20799169.035   109300316.599        1739.298          39.235    20799184.324    81620464.537        1299.267          33.846  
G03                                                                  22469171.916    88173849.644        2515.753          32.749  
G08  21856464.784   114856424.040       -2917.662          42.154    21856478.875    85769492.454       -2179.404          25.259  
G10  23324474.702   122570946.511       -3000.093          46.004    23324486.094    91530295.340       -2240.344          34.327  
G27  24708847.021   129845831.212       -3915.263          39.074    24708868.606    96962905.456       -2924.043          29.283  
G14  23277600.952   122324627.915        -478.861          40.166    23277622.837    91346389.211        -357.577          40.532  
E18                                                                  17796324.561    93520306.844         416.653          34.763    17796340.750    69836628.352         311.023          31.362  
E03                                                                  25210129.391   132480094.710          47.350          42.293    25210140.783                          38.768          20.258  
E21                                                                                                                                  26762003.550   105019847.565       -1908.527          34.850  
E23                                                                  26222189.756   137798524.729        -274.235          35.601    26222203.546   102901559.352        -204.802          37.878  
E08                                                                  25761138.635   135375704.918        2609.206          43.595    25761155.723   101092314.725        1948.866          28.975  
E26                                                                                                                                  26237298.696   102960796.047        1821.891          34.865  
E13                                                                  23321703.720   122556384.088         440.587          37.829    23321720.209    91519441.100         329.277          32.201  
E15                                                                  25038562.064   131578582.527       -1974.608          40.834    25038588.446    98256772.042       -1474.125          25.400  
C32  24787256.240   129073759.330        3313.299          41.270                                                                    24787279.324    97270597.525        2496.758          26.602  
C33  23997522.561   124961371.798       -2319.504          45.305                                                                    23997557.936    94171569.875       -1747.509          33.169  
C41  22237598.131   115797014.409         660.711          42.236                                                                    22237620.915    87265201.991         497.898          29.919  
C27                                                                                                                                  21566912.037    84633196.917        -614.651          28.448  
C28  24012777.800   125040804.798       -2873.489          45.136                                                                    24012789.192    94231348.421       -2165.897          23.796  
C13  40128366.910   208958930.162       -1057.053          42.434                                                                                                                                  
C30  22932168.090   119413812.464        2142.738          40.493                                                                    22932182.780    89990807.733        1615.057          34.205  
C14  25878459.415   134755912.955       -3173.790          42.506                                                                                                                                  
> 2025  3 26 17 17 51.0002712  0 23
G32  22124544.896   116265230.742         133.899          46.407    22124555.089    86821504.583          99.176          26.045  
G01  20798840.462   109298577.537        1739.332          39.516    20798853.653    81619166.048        1298.042          33.729  
G03                                                                  22468530.060    88171334.275        2515.184          32.561  
G08  21857020.899   114859342.140       -2918.432          42.329    21857034.090    85771671.530       -2179.907          24.964  
G10  23325044.008   122573946.752       -2999.769          46.231    23325057.199    91532535.870       -2240.836          33.891  
G27  24709595.003   129849746.567       -3915.226          39.938    24709613.890    96965829.313       -2924.714          29.460  
G14  23277699.284   122325107.042        -478.557          40.318    23277714.274    91346747.103        -358.451          40.450  
E18                                                                  17796244.516    93519891.628         414.069          34.842    17796262.504    69836318.305         309.284          31.472  
E03                                                                  25210118.598   132480047.753          47.011          42.275    25210131.189    98929980.4191         36.124          20.141  
E21                                                                                                                                  26762490.114   105021756.509       -1909.469          34.894  
E23                                                                  26222247.616   137798799.361        -274.796          35.516    26222255.111   102901764.414        -205.405          37.956  
E08                                                                  25760642.179   135373095.876        2608.907          43.485    25760660.466   101090366.476        1947.923          28.285  
E26                                                                                                                                  26236834.318   102958974.627        1821.055          34.872  
E13                                                                  23321620.078   122555943.291         441.288          37.960    23321636.567    91519112.015         328.790          31.925  
E15                                                                  25038940.102   131580557.222       -1974.436          40.854    25038964.386    98258246.784       -1475.217          25.836  
C32  24786620.380   129070446.357        3312.756          41.183                                                                    24786643.164    97268100.865        2496.433          25.888  
C33  23997968.952   124963691.176       -2318.981          45.381                                                                    23998003.128    94173317.925       -1748.508          32.594  
C41  22237472.518   115796354.009         660.639          42.149                                                                    22237495.003    87264704.370         497.147          29.982  
C27                                                                                                                                  21567069.728    84633812.299        -615.393          27.860  
C28  24013327.919   125043678.449       -2873.757          45.181                                                                    24013341.709    94233513.989       -2165.769          24.386  
C13  40128570.469   208959987.133       -1056.643          42.617                                                                                                                                  
C14  25879068.893   134759086.650       -3173.250          42.938                                                                                                                                  
C30  22931757.675   119411669.839        2142.620          40.425                                                                    22931770.865    89989193.130        1614.208          34.217  
> 2025  3 26 17 17 52.0002713  0 23
G32  22124518.515   116265098.621         131.517          45.163    22124528.108    86821406.002          97.397          25.943  
G01  20798512.789   109296840.001        1737.060          37.573    20798523.282    81617868.446        1297.413          33.458  
G03  22467875.913   118069447.4091       3366.618          40.247    22467889.704    88168819.865        2514.081          32.057  
G08  21857570.719   114862261.643       -2919.897          40.013    21857589.905    85773851.664       -2180.621          25.156  
G10  23325612.415   122576948.330       -3001.999          44.577    23325628.304    91534777.265       -2241.712          33.811  
G27  24710341.187   129853663.124       -3917.360          36.830    24710358.275    96968753.798       -2923.961          29.936  
G14  23277793.119   122325587.995        -481.599          39.306    23277805.411    91347106.186        -359.525          40.359  
E18                                                                  17796163.572    93519479.041         411.695          31.591    17796183.958    69836010.076         307.602          31.565  
E03                                                                  25210109.304   132480002.377          44.785          41.814    25210122.495                          34.635          18.081  
E21                                                                                                                                  26762976.377   105023666.327       -1910.163          34.628  
E23                                                                  26222299.180   137799075.435        -276.400          33.278    26222307.874   102901970.612        -206.574          37.624  
E08                                                                  25760148.720   135370488.177        2607.301          42.123    25760162.810   101088419.131        1947.165          28.092  
E26                                                                  26236349.553   137872931.6941       2437.821          32.134    26236370.539   102957153.962        1820.487          34.816  
E13                                                                  23321535.237   122555503.950         438.951          36.403    23321552.625    91518783.873         328.139          31.359  
E15                                                                  25039314.843   131582533.182       -1976.290          40.087    25039340.925    98259722.249       -1475.613          26.324  
C32  24785983.920   129067134.628        3311.273          40.716                                                                    24786006.105    97265604.976        2496.285          25.530  
C33  23998412.345   124966012.111       -2321.453          43.693                                                                    23998448.920    94175066.931       -1749.308          32.178  
C41  22237345.106   115795695.257         658.160          39.532                                                                    22237368.490    87264207.881         496.357          29.944  
C27  21567206.733   112306104.9891       -818.723          39.230                                                                    21567225.920    84634428.726        -616.816          27.892  
C28  24013881.636   125046553.384       -2875.433          43.444                                                                    24013893.028    94235680.684       -2167.296          23.258  
C13  40128769.531   208961045.173       -1058.294          41.613                                                                                                                                  
C14  25879680.170   134762261.636       -3175.297          41.822                                                                                                                                  
C30  22931346.359   119409528.603        2140.914          38.054                                                                    22931359.850    89987579.446        1613.483          33.978  
> 2025  3 26 17 17 53.0002714  0 23
G32  22124490.334   116264967.681         130.223          45.047    22124504.424    86821308.087          97.528          25.497  
G01  20798178.521   109295103.346        1736.302          36.926    20798192.611    81616571.637        1296.547          33.869  
G03  22467233.458   118066081.127        3365.978          40.263    22467249.347    88166306.093        2513.218          32.299  
G08  21858129.832   114865182.083       -2920.856          39.946    21858144.821    85776032.546       -2181.193          25.575  
G10  23326188.016   122579950.605       -3002.603          44.835    23326199.408    91537019.222       -2242.164          33.698  
G27  24711088.569   129857580.224       -3917.697          36.233    24711104.458    96971679.000       -2925.350          30.057  
G14  23277881.858   122326070.072        -482.750          38.865    23277896.847    91347466.184        -360.472          40.693  
E18                                                                  17796088.624    93519068.398         409.299          30.310    17796105.413    69835703.486         305.849          31.170  
E03                                                                  25210107.506   132479958.030          43.852          41.968    25210113.202                          34.784          18.646  
E21                                                                  26763445.552   140642823.2101      -2558.878          35.608    26763462.940   105025576.755       -1910.638          34.784  
E23                                                                  26222354.042   137799352.662        -277.545          32.051    26222362.136   102902177.602        -207.192          38.061  
E08                                                                  25759652.264   135367881.320        2606.406          41.840    25759667.553   101086472.453        1946.961          28.725  
E26                                                                  26235887.873   137870494.282        2436.931          31.560    26235906.760   102955333.868        1819.764          35.146  
E13                                                                  23321453.694   122555065.394         437.998          36.020    23321469.283    91518456.406         327.115          31.778  
E15                                                                  25039692.282   131584509.875       -1977.122          39.482    25039717.464    98261198.296       -1475.946          26.232  
C32  24785350.459   129063823.605        3310.934          40.706                                                                    24785370.545    97263109.895        2495.525          25.192  
C33  23998856.337   124968333.906       -2322.375          43.320                                                                    23998894.411    94176816.622       -1749.855          32.414  
C41  22237220.992   115795037.568         657.146          39.104                                                                    22237241.078    87263712.251         495.224          29.952  
C27  21567366.523   112306923.951        -819.349          38.626                                                                    21567384.211    84635045.904        -617.257          28.162  
C28  24014433.554   125049429.063       -2875.967          43.288                                                                    24014448.243    94237847.583       -2166.637          24.337  
C13  40128975.488   208962103.685       -1058.808          41.438                                                                                                                                  
C30  22930934.444   119407388.222        2139.991          37.864                                                                    22930948.834    89985966.436        1612.897          34.537  
C14  25880289.948   134765437.310       -3176.020          41.528                                                                                                                                  
> 2025  3 26 17 17 54.0002716  0 23
G32  22124498.728   116264995.521         -28.861          45.326    22124508.322    86821328.880         -21.927          26.198  
G01  20797876.030   109293525.243        1577.284          36.902    20797892.519    81615393.164        1178.138          34.097  
G03  22466619.783   118062873.240        3207.416          39.604    22466639.269    88163910.599        2395.224          32.310  
G08  21858712.328   114868261.061       -3079.776          39.642    21858730.915    85778331.592       -2298.855          25.771  
G10  23326786.702   122583111.229       -3161.128          44.714    23326801.092    91539379.438       -2360.540          33.689  
G27  24711863.833   129861655.464       -4075.929          35.462    24711880.021    96974722.239       -3043.680          30.182  
G14  23278007.471   122326710.913        -641.593          38.725    23278019.163    91347944.735        -479.125          40.632  
E18                                                                  17796046.054    93518817.420         249.495          29.755    17796057.446    69835516.060         186.493          30.866  
E03                                                                  25210124.894   132480072.312        -115.028          41.838    25210135.386                         -84.794          18.477  
E21                                                                  26763959.996   140645539.912       -2717.445          36.035    26763980.082   105027605.475       -2029.202          34.445  
E23                                                                  26222434.986   137799788.492        -436.745          31.134    26222443.380   102902503.086        -326.048          38.177  
E08                                                                  25759186.386   135365432.877        2447.613          41.816    25759200.776   101084644.134        1827.619          28.912  
E26                                                                  26235450.176   137868215.095        2278.700          31.252    26235473.260   102953631.835        1701.766          35.064  
E13                                                                  23321401.530   122554785.218         279.570          36.092    23321415.620    91518247.188         208.774          31.892  
E15                                                                  25040098.201   131586644.864       -2135.655          39.703    25040123.683    98262792.641       -1594.600          26.810  
C32  24784742.180   129060669.561        3153.415          40.580                                                                    24784763.765    97260733.025        2376.771          24.897  
C33  23999330.909   124970812.757       -2479.534          43.424                                                                    23999370.482    94178684.731       -1868.554          32.664  
C41  22237125.059   115794537.118         499.755          39.436                                                                    22237145.744    87263335.154         376.536          30.214  
C27  21567551.495   112307900.097        -976.990          38.722                                                                    21567571.281    84635781.504        -735.812          27.996  
C28  24015016.350   125052461.701       -3033.357          43.267                                                                    24015028.642    94240133.233       -2286.780          25.165  
C13  40129208.727   208963318.887       -1215.627          41.594                                                                                                                                  
C30  22930551.909   119405404.846        1982.689          37.666                                                                    22930567.199    89984471.764        1494.452          34.351  
C14  25880929.705   134768769.851       -3333.077          41.797                                                                                                                                  
> 2025  3 26 17 17 55.0002717  0 23
G32  22124475.045   116264867.146         127.830          45.224    22124484.038    86821233.092          94.918          26.430  
G01  20797548.657   109291790.643        1734.304          37.002    20797562.447    81614097.932        1294.793          34.060  
G03  22465969.833   118059508.855        3363.908          39.161    22465998.013    88161398.247        2511.927          31.875  
G08  21859273.840   114871183.577       -2922.849          40.075    21859285.232    85780514.130       -2182.575          26.566  
G10  23327361.104   122586115.231       -3004.247          44.771    23327372.496    91541622.719       -2243.593          33.814  
G27                                                                  24712625.006    96977648.381       -2926.440          30.552  
G14  23278097.708   122327195.576        -485.177          38.567    23278111.199    91348306.650        -362.099          40.874  
E18                                                                  17795973.804    93518411.129         405.422          28.215    17795980.399    69835212.731         302.546          31.349  
E03                                                                  25210115.900   132480030.288          41.535          41.601    25210126.992                          31.747          17.331  
E21                                                                  26764454.054   140648100.071       -2560.551          35.869    26764466.945   105029517.246       -1911.929          34.735  
E23                                                                  26222483.552   137800067.979        -280.144          30.112    26222497.043   102902711.757        -208.715          37.912  
E08                                                                  25758690.530   135362827.874        2604.714          41.817    25758705.519   101082698.825        1945.008          28.727  
E26                                                                  26234992.093   137865779.126        2435.747          31.693    26235009.181   102951812.826        1818.811          35.177  
E13                                                                  23321314.890   122554348.479         436.303          36.036    23321333.177    91517921.050         325.731          31.576  
E15                                                                  25040472.042   131588623.217       -1978.805          39.510    25040500.522    98264269.919       -1477.145          26.714  
C32  24784109.918   129057360.291        3308.903          40.726                                                                    24784129.104    97258239.216        2493.195          24.510  
C33  23999777.000   124973136.589       -2324.200          43.229                                                                    23999816.573    94180435.976       -1751.505          32.789  
C41  22236997.047   115793881.840         654.903          39.525                                                                    22237020.431    87262841.311         493.637          30.186  
C27  21567714.882   112308721.281        -821.601          38.772                                                                    21567728.972    84636400.417        -619.363          28.243  
C28  24015566.469   125055339.147       -2877.775          43.051                                                                    24015580.260    94242301.670       -2169.553          24.725  
C13  40129413.485   208964378.652       -1059.966          41.683                                                                                                                                  
C14  25881537.385   134771947.113       -3177.448          41.537                                                                                                                                  
C30  22930140.294   119403266.399        2137.984          37.522                                                                    22930156.483    89982860.269        1611.109          34.385  
> 2025  3 26 17 17 56.0002718  0 23
G32  22124451.061   116264740.012         126.442          45.354    22124460.355    86821138.054          94.953          26.142  
G01  20797215.587   109290057.023        1733.072          36.661    20797232.376    81612803.290        1294.213          34.096  
G03  22465334.872   118056145.273        3363.200          38.786    22465357.956    88158886.459        2511.723          31.958  
G08  21859830.254   114874107.062       -2924.013          40.169    21859843.445    85782697.277       -2183.950          25.106  
G10  23327931.309   122589119.965       -3004.997          44.989    23327943.900    91543866.489       -2244.008          33.752  
G27                                                                  24713370.590    96980574.982       -2926.848          30.869  
G14  23278183.149   122327681.449        -486.571          37.680    23278203.835    91348669.475        -363.274          40.892  
E18                                                                  17795901.554    93518007.106         402.765          27.786    17795902.753    69834910.934         300.900          31.529  
E03                                                                  25210109.005   132479989.324          40.334          41.329    25210118.298                          30.561          17.422  
E21                                                                  26764940.018   140650660.996       -2561.352          36.133    26764954.707   105031429.655       -1912.729          34.703  
E23                                                                  26222532.718   137800348.588        -281.352          30.554    26222550.706   102902921.323        -209.988          38.262  
E08                                                                  25758194.073   135360223.743        2603.600          41.496    25758210.562   101080754.139        1944.425          29.085  
E26                                                                  26234530.413   137863343.856        2434.969          32.061    26234546.002   102949994.266        1818.377          35.308  
E13                                                                  23321233.646   122553912.565         435.416          36.150    23321250.134    91517595.482         325.430          31.837  
E15                                                                  25040848.881   131590602.287       -1979.518          39.205    25040877.661    98265747.875       -1478.406          26.359  
C32  24783475.257   129054051.810        3308.071          41.138                                                                    24783493.844    97255745.752        2493.858          25.039  
C33  24000223.691   124975461.352       -2325.301          43.291                                                                    24000262.964    94182187.906       -1752.138          32.420  
C41  22236873.533   115793227.655         653.569          39.448                                                                    22236894.818    87262348.338         492.505          29.863  
C27  21567867.776   112309543.518        -822.862          38.780                                                                    21567886.963    84637020.073        -620.411          28.455  
C28  24016121.685   125058217.364       -2878.554          43.192                                                                    24016133.077    94244470.513       -2168.853          25.269  
C13  40129616.445   208965438.943       -1060.585          41.503                                                                                                                                  
C30  22929731.977   119401128.834        2136.903          37.442                                                                    22929746.667    89981249.363        1610.443          34.416  
C14  25882149.261   134775125.130       -3178.460          41.581                                                                                                                                  
> 2025  3 26 17 17 57.0002719  0 23
G32  22124430.975   116264614.213         125.400          45.736    22124436.971    86821044.176          93.587          26.395  
G01  20796882.518   109288324.493        1731.980          36.935    20796903.204    81611509.534        1293.318          33.993  
G03  22464693.916   118052782.688        3362.426          39.156    22464718.799    88156375.470        2510.748          32.145  
G08  21860385.470   114877031.622       -2924.674          40.188    21860399.261    85784881.239       -2184.782          25.283  
G10  23328509.909   122592125.641       -3005.930          45.492    23328515.904    91546111.004       -2244.877          33.925  
G27                                                                  24714116.473    96983502.096       -2927.004          30.165  
G14  23278272.188   122328168.640        -487.603          37.066    23278296.471    91349033.270        -364.189          40.806  
E18                                                                                                                                  17795826.306    69834610.811         299.303          31.356  
E03                                                                  25210102.409   132479949.571          39.444          41.416    25210112.003                          30.107          16.539  
E21                                                                  26765428.679   140653222.890       -2561.983          36.314    26765442.470   105033342.716       -1913.063          34.660  
E23                                                                  26222574.390   137800630.330        -282.027          30.083    26222603.769   102903131.697        -210.482          37.934  
E08                                                                  25757699.416   135357620.601        2602.920          41.840    25757715.305   101078810.325        1943.460          28.900  
E26                                                                  26234070.231   137860909.395        2434.187          32.512    26234082.822   102948176.331        1817.653          35.185  
E13                                                                  23321152.102   122553477.629         434.651          36.577    23321167.692    91517270.683         324.896          31.744  
E15                                                                  25041228.119   131592582.242       -1980.136          38.995    25041252.701    98267226.381       -1478.655          26.260  
C32  24782842.695   129050744.198        3307.650          41.014                                                                    24782857.085    97253253.278        2492.158          25.120  
C33  24000671.281   124977787.165       -2326.070          43.242                                                                    24000709.654    94183940.700       -1753.229          32.158  
C41  22236748.819   115792574.689         652.774          39.495                                                                    22236768.905    87261856.241         491.736          29.909  
C27  21568027.865   112310366.844        -823.650          38.748                                                                    21568045.553    84637640.478        -620.420          28.949  
C28  24016676.001   125061096.564       -2879.481          43.597                                                                    24016686.794    94246640.425       -2170.597          25.570  
C13  40129818.505   208966499.953       -1061.070          41.423                                                                                                                                  
C30  22929321.261   119398992.229        2136.541          37.524                                                                    22929336.251    89979639.227        1609.824          34.331  
C14  25882760.238   134778303.987       -3179.077          41.752                                                                                                                                  
> 2025  3 26 17 17 58.0002720  0 23
G32  22124404.893   116264489.662         123.590          45.440    22124412.688    86820951.149          91.941          26.655  
G01                                                                  20796573.132    81610216.438        1292.532          34.047  
G03  22464055.058   118049421.006        3361.103          39.174    22464079.042    88153865.038        2510.393          31.957  
G08  21860936.489   114879957.202       -2926.248          39.400    21860955.975    85787065.849       -2185.581          25.392  
G10  23329077.116   122595132.061       -3007.049          45.332    23329088.208    91548356.058       -2245.733          33.719  
G27                                                                  24714862.657    96986429.795       -2927.887          29.869  
G14  23278365.423   122328657.061        -489.344          36.862    23278390.006    91349397.977        -365.288          40.852  
E18                                                                                                                                  17795749.859    69834312.302         297.457          31.829  
E03                                                                  25210092.216   132479910.891          38.017          40.792    25210106.007                          30.109          16.021  
E21                                                                  26765917.041   140655785.651       -2563.441          37.355    26765929.932   105035256.488       -1914.402          34.872  
E23                                                                                                                                  26222658.032   102903342.927        -211.771          38.148  
E08                                                                  25757202.360   135355018.339        2601.531          41.799    25757220.048   101076866.972        1943.257          29.323  
E26                                                                  26233605.553   137858475.592        2432.925          31.985    26233619.643   102946358.849        1816.924          35.007  
E13                                                                  23321067.861   122553043.546         433.412          36.221    23321085.249    91516946.594         323.527          31.948  
E15                                                                  25041603.758   131594562.967       -1981.381          38.989    25041630.740    98268705.496       -1479.579          26.215  
C32  24782205.036   129047437.428        3306.225          40.955                                                                    24782222.424    97250761.257        2491.334          25.391  
C33  24001118.272   124980113.946       -2327.381          43.450                                                                    24001156.645    94185694.100       -1753.672          32.527  
C41  22236621.407   115791922.879         651.033          39.625                                                                    22236642.992    87261365.035         490.478          30.299  
C27  21568185.556   112311191.241        -824.971          38.738                                                                    21568203.244    84638261.782        -621.849          28.601  
C28  24017229.718   125063976.522       -2880.586          43.539                                                                    24017238.412    94248810.717       -2171.253          24.831  
C13  40130024.462   208967561.504       -1062.129          41.627                                                                                                                                  
C30  22928908.747   119396856.583        2135.124          37.269                                                                    22928926.135    89978029.812        1608.601          34.328  
C14  25883370.915   134781483.583       -3180.161          41.668                                                                                                                                  
> 2025  3 26 17 17 59.0002721  0 23
G32  22124378.511   116264366.153         122.720          45.342    22124390.203    86820858.910          91.986          26.241  
G01                                                                  20796244.260    81608923.976        1292.094          33.930  
G03  22463414.702   118046060.002        3360.543          39.317    22463438.985    88151355.296        2509.288          32.203  
G08  21861498.300   114882883.533       -2926.787          39.604    21861514.189    85789250.954       -2184.602          25.959  
G10  23329652.418   122598139.098       -3007.442          45.484    23329659.913    91550601.592       -2245.881          33.883  
G27                                                                  24715608.840    96989357.811       -2928.466          29.767  
G14  23278463.455   122329146.497        -490.104          36.549    23278482.642    91349763.495        -366.083          40.680  
E18                                                                                                                                  17795674.311    69834015.251         295.897          31.500  
E03                                                                  25210085.021   132479873.141          37.264          40.785                                                                  
E21                                                                  26766403.904   140658349.015       -2563.836          37.888    26766417.695   105037170.670       -1914.359          34.599  
E23                                                                                                                                  26222711.694   102903554.837        -212.193          38.279  
E08                                                                  25756710.101   135352416.747        2601.061          41.904    25756725.090   101074924.243        1942.715          29.583  
E26                                                                  26233148.669   137856042.237        2433.241          31.943    26233156.464   102944541.787        1816.754          34.918  
E13                                                                  23320983.919   122552610.076         433.288          36.233    23321002.206    91516622.908         323.532          32.113  
E15                                                                  25041980.897   131596544.272       -1981.757          38.834    25042007.579    98270185.045       -1480.201          26.203  
C32  24781569.177   129044131.259        3305.813          41.170                                                                    24781589.263    97248269.777        2490.923          25.388  
C33  24001566.162   124982441.475       -2327.842          43.330                                                                    24001604.235    94187448.185       -1754.252          32.525  
C41  22236496.094   115791271.972         650.627          38.955                                                                    22236519.478    87260874.515         490.293          30.813  
C27  21568345.045   112312016.514        -825.905          38.837                                                                    21568361.534    84638883.686        -622.189          28.427  
C28  24017780.736   125066857.138       -2881.067          43.303                                                                    24017791.829    94250981.623       -2171.907          25.619  
C13  40130228.021   208968623.446       -1062.280          41.811                                                                                                                                  
C30  22928499.230   119394721.665        2134.356          37.604                                                                    22928515.119    89976420.921        1608.177          34.141  
C14  25883980.393   134784663.747       -3180.523          41.724                                                                                                                                  
> 2025  3 26 17 18  0.0002722  0 22
G32  22124356.327   116264243.720         121.805          45.435    22124365.920    86820767.525          91.097          25.854  
G01                                                                  20795914.488    81607632.135        1291.324          34.250  
G03  22462779.441   118042699.767        3359.718          39.849    22462799.827    88148846.045        2508.833          32.151  
G08  21862055.914   114885810.720       -2927.526          40.207    21862069.704    85791436.929       -2186.011          25.884  
G10  23330220.824   122601146.760       -3007.987          45.462    23330232.816    91552847.538       -2245.945          33.853  
G27                                                                  24716354.724    96992286.183       -2928.593          30.084  
G14  23278548.596   122329637.024        -491.074          35.457    23278575.577    91350129.786        -366.654          40.759  
E03                                                                  25210073.030   132479836.335          36.237          40.582                                                                  
E21                                                                  26766892.566   140660913.077       -2564.215          37.544    26766905.457   105039085.425       -1915.030          34.619  
E23                                                                                                                                  26222766.556   102903767.452        -212.706          38.152  
E08                                                                  25756212.445   135349815.921        2600.234          41.641    25756231.032   101072982.080        1942.237          29.484  
E26                                                                  26232684.890   137853609.453        2432.668          31.291    26232693.284   102942725.097        1816.530          34.997  
E13                                                                  23320902.975   122552177.408         432.248          36.011    23320919.164    91516299.785         322.895          32.001  
E15                                                                  25042360.734   131598526.178       -1982.136          38.979    25042385.018    98271665.062       -1480.282          25.837  
C32  24780933.017   129040825.751        3305.113          41.043                                                                    24780953.703    97245778.660        2491.200          25.472  
C33  24002013.452   124984769.841       -2328.707          43.404                                                                    24002050.926    94189202.874       -1754.999          32.689  
C41  22236369.582   115790622.124         649.372          38.914                                                                    22236394.165    87260384.810         489.198          30.421  
C27  21568503.036   112312842.660        -826.725          38.542                                                                    21568519.225    84639506.263        -622.869          28.202  
C28  24018332.355   125069738.426       -2881.726          43.146                                                                    24018347.044    94253152.768       -2170.638          25.382  
C13  40130433.079   208969685.784       -1062.516          41.599                                                                                                                                  
C30  22928090.613   119392587.477        2133.867          37.518                                                                    22928106.202    89974812.570        1607.998          34.633  
C14  25884592.869   134787844.531       -3181.119          41.679                                                                                                                                  
> 2025  3 26 17 18  1.0002723  0 22
G32  22124333.842   116264122.241         120.988          45.520    22124342.536    86820676.775          90.728          26.207  
G01                                                                  20795585.016    81606340.781        1290.878          33.896  
G03  22462141.183   118039340.063        3359.465          39.586    22462160.670    88146337.148        2508.689          32.716  
G08  21862615.326   114888738.573       -2928.110          40.496    21862628.217    85793623.467       -2187.526          26.102  
G10  23330793.728   122604154.919       -3008.397          45.065    23330805.420    91555093.929       -2246.539          33.814  
G27                                                                  24717101.207    96995214.804       -2928.696          29.881  
G14                                                                  23278669.712    91350496.784        -367.359          40.670  
E03                                                                  25210063.736   132479800.331          35.583          40.543                                                                  
E21                                                                  26767381.827   140663477.718       -2564.595          37.600    26767393.219   105041000.569       -1915.430          34.902  
E23                                                                                                                                  26222820.819   102903980.657        -213.431          38.308  
E08                                                                  25755720.486   135347215.636        2600.060          41.635    25755735.775   101071040.334        1941.746          29.793  
E26                                                                  26232220.512   137851177.061        2432.150          31.121    26232230.105   102940908.715        1816.232          34.891  
E13                                                                  23320820.532   122551745.265         431.760          36.410    23320837.320    91515977.088         322.606          31.666  
E15                                                                  25042736.674   131600508.580       -1982.491          38.641    25042763.356    98273145.430       -1480.849          25.969  
C32  24780294.759   129037520.745        3304.702          40.771                                                                    24780319.941    97243287.958        2490.811          26.141  
C33  24002461.342   124987098.855       -2329.229          43.234                                                                    24002497.916    94190958.002       -1755.300          32.318  
C41  22236245.468   115789973.070         648.662          39.334                                                                    22236270.051    87259895.666         488.890          30.248  
C27  21568659.828   112313669.547        -827.251          38.684                                                                    21568678.415    84640129.426        -623.175          28.064  
C28  24018887.270   125072620.228       -2882.147          43.258                                                                    24018901.061    94255324.639       -2172.354          25.281  
C13  40130635.739   208970748.387       -1062.833          42.066                                                                                                                                  
C30  22927685.594   119390453.892        2133.161          37.474                                                                    22927696.386    89973204.699        1607.667          34.494  
C14  25885204.146   134791025.742       -3181.413          41.754                                                                                                                                  
> 2025  3 26 17 18  2.0002724  0 23
G32  22124307.760   116264002.329         119.241          45.542    22124320.052    86820587.289          88.669          26.141  
G01  20795246.550   109279674.8871       1727.552          37.186    20795256.444    81605050.404        1289.871          33.874  
G03  22461501.726   118035981.605        3358.085          39.597    22461521.512    88143829.217        2507.435          32.315  
G08  21863172.041   114891667.773       -2929.826          40.374    21863185.532    85795810.763       -2188.092          25.251  
G10  23331367.231   122607164.222       -3009.570          45.159    23331377.723    91557341.107       -2247.313          33.567  
G27                                                                  24717846.791    96998144.187       -2929.897          29.631  
G14                                                                  23278762.648    91350864.966        -368.772          40.627  
E03                                                                  25210056.541   132479765.751          33.869          40.593                                                                  
E21                                                                  26767865.992   140666043.542       -2566.158          37.431    26767882.181   105042916.588       -1916.534          34.699  
E23                                                                                                                                  26222875.381   102904194.957        -214.816          38.112  
E08                                                                  25755225.229   135344616.602        2598.488          41.626    25755241.417   101069099.514        1940.240          29.718  
E26                                                                  26231759.431   137848745.719        2430.957          30.889    26231768.125   102939093.063        1815.360          34.715  
E13                                                                  23320738.389   122551314.297         430.567          36.422    23320754.877    91515655.301         321.305          31.749  
E15                                                                  25043113.813   131602492.098       -1984.062          38.461    25043138.096    98274626.554       -1481.271          25.426  
C32  24779664.595   129034216.881        3303.272          41.143                                                                    24779685.281    97240798.137        2489.737          25.926  
C33  24002909.532   124989429.159       -2330.682          43.500                                                                    24002946.106    94192714.089       -1756.153          32.355  
C41  22236118.056   115789325.495         647.173          39.042                                                                    22236144.438    87259407.706         487.325          30.244  
C27  21568818.418   112314497.837        -828.973          38.656                                                                    21568838.804    84640753.664        -624.940          28.700  
C28  24019440.088   125075503.177       -2883.475          43.325                                                                    24019455.377    94257497.202       -2172.738          26.224  
C13  40130842.296   208971811.874       -1063.768          42.112                                                                                                                                  
C30  22927272.779   119388321.586        2131.587          37.954                                                                    22927287.469    89971597.791        1606.374          34.089  
C14  25885812.125   134794208.064       -3182.693          41.165                                                                                                                                  
R24  19701194.747   105351142.0321      -1630.439          40.043  
> 2025  3 26 17 18  3.0002725  0 23
G32  22124292.771   116263883.779         118.103          45.713    22124296.968    86820498.791          87.992          25.744  
G01  20794908.384   109277948.005        1726.463          36.698    20794927.571    81603760.844        1289.269          33.850  
G03  22460862.269   118032624.140        3357.062          39.418    22460882.355    88141322.054        2506.794          32.153  
G08  21863727.856   114894598.048       -2930.617          40.139    21863743.445    85797998.886       -2188.217          25.316  
G10  23331941.333   122610174.467       -3010.620          45.745    23331950.027    91559589.033       -2247.944          33.768  
G27  24718565.693   129896944.1801      -3923.884          32.043    24718593.574    97001074.061       -2929.892          29.943  
G14                                                                  23278857.382    91351234.138        -369.523          40.410  
E03                                                                  25210048.447   132479732.393          32.754          40.734                                                                  
E21                                                                  26768351.956   140668610.362       -2567.189          37.377    26768370.243   105044833.330       -1916.830          34.844  
E23                                                                                                                                  26222929.644   102904410.156        -215.741          38.084  
E08                                                                  25754730.271   135342018.571        2597.598          41.626    25754747.060   101067159.461        1939.597          29.414  
E26                                                                  26231296.251   137846315.192        2429.956          30.950    26231305.545   102937278.089        1814.697          34.756  
E13                                                                  23320657.745   122550884.343         429.676          36.930    23320673.334    91515334.191         321.100          31.649  
E15                                                                  25043493.950   131604476.499       -1984.836          38.441    25043516.135    98276108.449       -1481.914          25.850  
C32  24779029.635   129030913.926        3302.635          40.902                                                                    24779049.121    97238309.158        2488.469          25.024  
C33  24003355.623   124991760.582       -2331.921          43.622                                                                    24003393.097    94194471.095       -1757.121          32.390  
C41  22235996.040   115788679.198         645.891          39.596                                                                    22236021.523    87258920.592         486.666          30.214  
C27  21568977.008   112315327.271        -829.964          38.954                                                                    21568997.993    84641378.718        -625.598          28.416  
C28  24019996.802   125078387.068       -2884.193          43.676                                                                    24020008.494    94259670.485       -2173.280          25.451  
C13  40131043.757   208972876.090       -1064.448          42.178                                                                                                                                  
C30  22926865.961   119386190.284        2130.958          38.202                                                                    22926877.353    89969991.601        1606.259          34.054  
C14  25886425.501   134797391.287       -3183.630          41.736                                                                                                                                  
R24  19701495.139   105352773.154       -1631.701          39.870  
> 2025  3 26 17 18  4.0002726  0 23
G32  22124269.987   116263766.491         116.509          45.264    22124274.783    86820411.147          87.088          26.529  
G01  20794576.814   109276222.095        1725.326          36.686    20794599.298    81602472.016        1288.203          33.756  
G03  22460224.610   118029267.563        3356.215          39.336    22460243.497    88138815.438        2506.680          32.147  
G08  21864289.367   114897529.339       -2931.857          40.373    21864301.359    85800187.874       -2189.176          26.272  
G10  23332510.639   122613185.443       -3011.434          45.553    23332523.230    91561837.519       -2248.865          33.729  
G27  24719316.074   129900868.446       -3924.933          31.988    24719339.457    97004004.555       -2930.910          30.022  
G14                                                                  23278951.217    91351604.221        -370.668          40.493  
E03                                                                  25210044.250   132479700.125          31.574          40.848    25210064.336                          24.783          17.248  
E21                                                                  26768842.116   140671177.978       -2568.162          37.393    26768858.905   105046750.701       -1917.737          34.896  
E23                                                                                                                                  26222985.105   102904626.129        -216.440          38.208  
E08                                                                  25754235.614   135339421.426        2596.343          41.617    25754253.002   101065220.011        1939.103          29.309  
E26                                                                  26230834.571   137843885.277        2429.357          31.419    26230842.665   102935463.548        1814.079          34.715  
E13                                                                  23320577.700   122550455.235         428.667          36.630    23320591.790    91515013.778         319.882          31.822  
E15                                                                  25043874.686   131606461.663       -1985.705          38.530    25043894.473    98277590.913       -1482.873          25.949  
C32  24778394.375   129027611.771        3301.658          40.585                                                                    24778415.360    97235820.490        2488.516          25.741  
C33  24003804.712   124994092.902       -2332.898          43.612                                                                    24003841.586    94196228.805       -1758.422          32.766  
C41                                                                                                                                  22235897.409    87258434.392         485.754          30.635  
C27  21569135.598   112316157.740        -831.084          38.473                                                                    21569157.483    84642004.563        -626.225          28.532  
C28  24020550.219   125081271.777       -2885.196          43.668                                                                    24020563.710    94261844.388       -2174.076          25.608  
C13  40131251.213   208973940.840       -1065.101          42.283                                                                                                                                  
C30  22926457.044   119384059.882        2129.952          37.497                                                                    22926468.436    89968386.140        1605.068          34.026  
C14  25887038.276   134800575.204       -3184.506          42.073                                                                                                                                  
R24  19701841.699   105354405.436       -1633.063          40.512  
> 2025  3 26 17 18  5.0002728  0 23
G32  22124272.385   116263807.864         -41.934          44.747    22124283.177    86820442.047         -31.551          26.429  
G01  20794282.118   109274654.580        1567.236          36.764    20794301.005    81601301.512        1169.966          34.020  
G03  22459622.027   118026069.336        3197.711          39.653    22459634.319    88136427.224        2387.855          31.971  
G08  21864878.160   114900619.022       -3089.989          40.402    21864890.751    85802495.111       -2307.470          26.091  
G10  23333114.421   122616354.704       -3169.711          45.407    23333126.713    91564204.176       -2367.009          34.232  
G27  24720087.739   129904950.736       -4082.803          32.007    24720117.719    97007052.945       -3048.711          30.027  
G14  23279048.350   122332265.7461       -655.113          36.054    23279075.931    91352092.812        -489.163          40.536  
E03                                                                  25210069.432   132479826.378        -126.750          40.627    25210087.120                         -94.998          18.266  
E21                                                                  26769359.258   140673903.890       -2726.387          37.344    26769378.145   105048786.306       -2036.104          34.782  
E23                                                                                                                                  26223070.246   102904960.535        -335.028          38.306  
E08                                                                  25753768.537   135336982.568        2438.484          41.510    25753788.923   101063398.754        1821.201          29.319  
E26                                                                  26230401.071   137841613.568        2271.341          31.092    26230410.365   102933767.135        1696.103          34.924  
E13                                                                  23320522.838   122550184.444         270.321          36.959    23320540.226    91514811.538         201.886          32.252  
E15                                                                  25044280.006   131608605.033       -2143.775          38.502    25044300.691    98279191.389       -1600.746          25.806  
C32  24777790.892   129024466.418        3145.041          40.669                                                                    24777810.679    97233450.170        2370.673          25.597  
C33  24004283.181   124996582.209       -2489.791          43.416                                                                    24004319.455    94198104.695       -1876.160          32.712  
C41                                                                                                                                  22235803.574    87258066.614         367.496          30.774  
C27  21569324.467   112317145.264        -987.889          38.342                                                                    21569346.352    84642748.746        -744.515          29.053  
C28  24021133.016   125084313.318       -3041.972          43.220                                                                    24021147.106    94264136.510       -2291.942          25.567  
C13  40131485.651   208975162.160       -1221.583          42.170                                                                                                                                  
C14  25887678.333   134803915.862       -3341.084          41.890                                                                                                                                  
C30  22926075.708   119382086.398        1973.118          37.570                                                                    22926089.199    89966898.939        1486.826          34.405  
R24  19702171.171   105356199.118       -1794.228          40.187  
> 2025  3 26 17 18  6.0002729  0 22
G32  22124246.903   116263692.733         114.755          43.968    22124260.693    86820356.092          85.597          25.740  
G01  20793955.044   109272930.344        1723.901          37.442    20793973.032    81600013.880        1287.523          34.071  
G03  22458972.677   118022714.191        3354.992          39.605    22458996.960    88133921.727        2505.402          32.209  
G08  21865438.472   114903551.937       -2933.022          40.693    21865447.166    85804685.294       -2190.877          25.658  
G10  23333686.425   122619366.964       -3012.485          45.337    23333700.215    91566453.580       -2249.489          34.072  
G27  24720838.420   129908875.913       -3925.517          32.781    24720863.902    97009984.111       -2931.231          30.141  
G14  23279149.980   122332763.464        -498.036          37.395    23279171.565    91352464.499        -371.994          40.447  
E03                                                                  25210069.132   132479795.972          30.243          40.605    25210082.023                          22.491          18.937  
E21                                                                  26769845.522   140676472.877       -2569.158          37.407    26769866.507   105050704.666       -1918.608          34.747  
E23                                                                                                                                  26223126.008   102905177.895        -217.408          38.402  
E08                                                                  25753274.179   135334386.864        2595.504          41.272    25753294.265   101061460.420        1938.406          29.858  
E26                                                                  26229941.190   137839184.729        2428.985          30.954    26229948.984   102931953.378        1813.865          34.842  
E13                                                                  23320443.093   122549756.718         427.590          37.063    23320459.282    91514492.143         319.182          32.039  
E15                                                                  25044658.044   131610591.427       -1986.429          38.229    25044680.528    98280674.891       -1484.435          25.697  
C32  24777156.232   129021165.547        3300.787          40.685                                                                    24777176.917    97230962.691        2487.248          25.962  
C33  24004729.572   124998916.141       -2334.162          43.495                                                                    24004767.345    94199863.619       -1759.311          32.919  
C41                                                                                                                                  22235679.759    87257581.845         484.570          30.506  
C27  21569485.456   112317977.528        -832.613          38.602                                                                    21569504.643    84643375.949        -627.298          28.743  
C28  24021686.433   125087199.343       -2886.068          43.120                                                                    24021702.322    94266311.469       -2175.384          25.455  
C13  40131688.910   208976227.726       -1065.637          41.928                                                                                                                                  
C14  25888288.411   134807100.961       -3185.134          41.945                                                                                                                                  
C30  22925665.892   119379957.526        2128.617          37.382                                                                    22925680.881    89965294.581        1604.221          34.381  
> 2025  3 26 17 18  7.0002730  0 23
G32  22124221.420   116263578.836         113.215          43.420    22124238.209    86820270.951          85.283          25.385  
G01  20793639.063   109271207.043        1722.779          38.391    20793645.359    81598726.954        1286.874          34.087  
G03  22458338.316   118019360.000        3353.527          39.609    22458358.702    88131416.935        2504.616          32.099  
G08  21865990.989   114906485.834       -2934.357          40.170    21866003.881    85806876.099       -2191.076          26.123  
G10  23334262.326   122622380.026       -3013.601          45.562    23334273.119    91568703.577       -2250.266          33.932  
G27  24721587.001   129912801.728       -3926.102          33.057    24721610.385    97012915.741       -2932.115          29.735  
G14  23279242.316   122333262.434        -499.557          37.414    23279265.999    91352837.077        -372.958          40.681  
E18                                                                  17795108.003    93513922.7731        379.563          29.140                                                                  
E03                                                                  25210062.237   132479766.687          28.782          40.574    25210078.126                          21.151          19.222  
E21                                                                  26770331.185   140679042.684       -2570.129          37.290    26770356.068   105052623.679       -1919.260          34.621  
E23                                                                  26223155.087   137803662.7191       -292.948          31.092    26223181.469   102905396.139        -218.521          38.213  
E08                                                                  25752786.117   135331792.049        2594.205          41.455    25752800.507   101059522.760        1937.178          29.736  
E26                                                                  26229482.207   137836756.634        2427.585          30.897    26229486.404   102930140.163        1813.067          34.666  
E13                                                                  23320360.950   122549329.884         426.268          37.032    23320377.738    91514173.393         318.407          31.855  
E15                                                                  25045033.984   131612578.603       -1987.748          38.561    25045057.667    98282158.721       -1484.583          26.219  
C32  24776523.370   129017865.528        3299.472          40.696                                                                    24776543.156    97228475.769        2486.515          24.860  
C33  24005181.659   125001251.078       -2335.629          43.700                                                                    24005215.835    94201623.224       -1760.471          32.199  
C41                                                                                                                                  22235556.545    87257097.976         483.522          30.517  
C27  21569647.943   112318810.818        -833.898          38.777                                                                    21569665.631    84644003.911        -628.677          28.469  
C28  24022243.747   125090086.215       -2887.429          43.566                                                                    24022256.638    94268486.995       -2175.938          26.362  
C13  40131894.568   208977293.846       -1066.444          42.081                                                                                                                                  
C14  25888904.185   134810286.850       -3186.487          41.995                                                                                                                                  
C30  22925257.874   119377829.513        2127.642          37.517                                                                    22925272.264    89963690.939        1603.270          34.366  
> 2025  3 26 17 18  8.0002731  0 23
G32  22124197.137   116263462.356         117.093          43.414    22124216.923    86820183.988          87.818          26.173  
G01  20793310.790   109269480.862        1727.099          38.406    20793316.187    81597437.980        1289.498          33.968  
G03  22457695.561   118016002.811        3357.538          39.352    22457719.244    88128909.974        2507.730          32.289  
G08  21866550.402   114909416.922       -2930.431          39.808    21866561.494    85809064.933       -2188.500          25.533  
G10  23334831.632   122625390.038       -3009.234          45.685    23334846.022    91570951.331       -2247.016          33.994  
G27  24722338.281   129916724.389       -3921.336          34.629    24722356.569    97015845.004       -2928.625          29.966  
G14  23279336.151   122333758.805        -495.516          37.553    23279359.535    91353207.744        -370.112          40.665  
E18                                                                  17795040.250    93513540.115         382.373          30.473                                                                  
E03                                                                  25210058.939   132479734.670          32.729          40.351    25210071.830                          20.927          17.569  
E21                                                                  26770821.346   140681609.548       -2565.878          37.009    26770844.730   105054540.489       -1916.228          34.367  
E23                                                                  26223217.444   137803952.259        -288.563          30.743    26223236.031   102905612.338        -215.684          38.094  
E08                                                                  25752287.562   135329194.258        2598.746          41.375    25752306.749   101057582.787        1941.364          29.687  
E26                                                                  26229015.730   137834325.325        2432.368          30.634    26229023.525   102928324.600        1816.435          34.706  
E13                                                                  23320282.105   122548900.106         430.284          37.101    23320296.195    91513852.435         321.488          31.677  
E15                                                                  25045415.620   131614562.694       -1983.131          38.714    25045435.406    98283640.365       -1481.341          25.228  
C32  24775888.110   129014562.466        3303.889          41.087                                                                    24775908.196    97225986.531        2490.116          25.596  
C33  24005624.452   125003583.117       -2331.385          43.450                                                                    24005664.025    94203380.635       -1756.829          32.365  
C41  22235407.847   115785615.8951        645.459          39.475                                                                    22235433.630    87256612.077         486.350          30.565  
C27  21569808.632   112319641.359        -829.820          38.776                                                                    21569825.121    84644629.829        -625.621          29.027  
C28  24022796.564   125092970.071       -2882.938          43.830                                                                    24022810.055    94270660.230       -2172.243          26.231  
C13  40132098.127   208978356.762       -1061.839          42.075                                                                                                                                  
C14  25889514.262   134813469.627       -3181.830          42.104                                                                                                                                  
C30  22924846.859   119375698.663        2131.578          37.203                                                                    22924862.448    89962085.111        1606.536          34.349  
> 2025  3 26 17 18  9.0002732  0 23
G32  22124175.852                         116.282          43.174    22124193.839                          85.421          25.631  
G01  20792978.620                        1726.549          38.541    20792988.514                        1287.532          34.090  
G03  22457056.403                        3357.916          39.000    22457081.586                        2505.240          32.134  
G08  21867100.821                       -2929.017          39.705    21867121.507                       -2191.535          26.373  
G10  23335407.234                       -3008.579          45.628    23335419.525                       -2248.767          33.995  
G27  24723086.863                       -3920.427          34.830    24723103.052                       -2930.226          30.159  
G14  23279435.382                        -493.991          38.051    23279454.869                        -372.840          40.446  
E18                                                                  17794968.600                         381.946          31.540                                                                  
E03                                                                  25210055.042                          31.187          40.660    25210065.535                          22.164          16.075  
E21                                                                  26771311.207                       -2567.282          36.767    26771333.092                       -1918.135          34.671  
E23                                                                  26223269.908                        -289.512          30.339    26223292.093                        -218.194          38.459  
E08                                                                  25751792.905                        2597.007          41.346    25751812.391                        1938.776          30.061  
E26                                                                  26228541.758                        2431.359          31.077    26228560.945                        1814.293          34.777  
E13                                                                  23320199.362                         429.148          36.843    23320214.352                         319.786          31.639  
E15                                                                  25045791.260                       -1984.345          38.745    25045811.645                       -1482.036          24.766  
C32  24775258.545                        3302.826          41.245                                                                    24775274.734                        2487.627          25.228  
C33  24006073.241                       -2332.299          42.922                                                                    24006111.915                       -1759.135          32.711  
C41  22235286.132                         645.409          39.536                                                                    22235309.815                         484.492          30.117  
C27  21569966.323                        -830.362          38.897                                                                    21569984.610                        -627.569          29.239  
C28  24023351.480                       -2881.717          43.617                                                                    24023363.771                       -2174.762          26.385  
C13  40132300.487                       -1061.570          42.049                                                                                                                                  
C14  25890123.740                       -3181.626          42.197                                                                                                                                  
C30                                                                                                                                  22924453.531                        1604.430          34.483  
> 2025  3 26 17 18 10.0002733  0 23
G32  22124155.466                         108.892          42.578    22124174.353                          82.198          24.435  
G01  20792652.446                        1719.450          37.984    20792661.440                        1283.326          33.757  
G03  22456424.741                        3352.363          39.492    22456443.927                        2501.518          32.149  
G08  21867668.028                       -2936.760          40.317    21867680.620                       -2194.958          26.338  
G10  23335979.238                       -3015.796          45.206    23335993.328                       -2253.126          33.701  
G27  24723829.149                       -3928.349          33.978    24723851.334                       -2934.140          30.048  
G14  23279540.609                        -503.152          38.672    23279551.102                        -376.385          40.408  
E18                                                                  17794891.853                         379.351          30.699    17794896.050                         278.526          30.680  
E03                                                                  25210051.145                          23.140          40.996    25210061.038                          21.912          16.332  
E21                                                                  26771796.871                       -2574.739          37.110    26771822.953                       -1922.117          34.670  
E23                                                                  26223326.869                        -292.502          29.765    26223349.353                        -221.534          37.979  
E08                                                                  25751300.646                        2589.449          41.253    25751319.832                        1934.797          29.127  
E26                                                                  26228083.975                        2430.109          31.535    26228099.265                        1810.547          34.831  
E13                                                                  23320119.617                         421.524          36.932    23320134.307                         315.709          32.015  
E15                                                                  25046172.596                       -1992.064          38.922    25046192.382                       -1487.139          25.004  
C32  24774624.484                        3296.557          41.333                                                                    24774641.872                        2484.150          25.773  
C33  24006521.131                       -2338.019          42.926                                                                    24006561.303                       -1762.998          32.710  
C41  22235165.615                         638.268          39.640                                                                    22235187.200                         480.535          30.582  
C27  21570129.710                        -835.537          38.908                                                                    21570145.299                        -631.437          28.581  
C28  24023905.197                       -2888.522          43.563                                                                    24023918.387                       -2178.730          25.061  
C13  40132506.144                       -1069.175          41.880                                                                                                                                  
C30                                                                                                                                  22924045.813                        1600.301          34.175  
C14  25890738.615                       -3187.117          42.047                                                                                                                                  
> 2025  3 26 17 18 11.0002734  0 23
G32  22124134.480                         103.063          42.480    22124154.866                          79.113          24.939  
G01  20792323.874                        1714.545          37.667    20792334.666                        1281.483          33.810  
G03  22455784.684                        3345.525          38.570    22455806.868                        2499.904          31.926  
G08  21868225.642                       -2941.390          40.155    21868239.733                       -2195.028          24.980  
G10  23336559.336                       -3022.429          45.249    23336568.330                       -2254.942          33.746  
G27  24724576.232                       -3930.554          33.336    24724599.616                       -2936.137          29.756  
G14  23279639.841                        -509.136          39.160    23279647.336                        -377.911          40.450  
E18                                                                  17794823.200                         381.940          30.659    17794826.198                         276.262          30.757  
E03                                                                  25210044.549                          19.999          40.996                                                                  
E21                                                                  26772288.830                       -2578.078          37.566    26772313.413                       -1923.959          34.834  
E23                                                                  26223384.129                        -296.217          30.800    26223405.714                        -223.568          38.278  
E08                                                                  25750807.487                        2586.591          41.489    25750826.374                        1932.856          29.235  
E26                                                                  26227623.494                        2426.080          32.635    26227638.783                        1808.589          34.977  
E13                                                                  23320038.373                         418.867          36.596    23320054.262                         313.709          31.976  
E15                                                                  25046549.135                       -1995.272          38.692    25046571.319                       -1487.788          25.326  
C32  24773991.323                        3292.378          41.398                                                                    24774009.310                        2481.575          24.442  
C33  24006973.518                       -2345.393          43.088                                                                    24007010.692                       -1765.037          32.419  
C41  22235044.499                         632.175          40.043                                                                    22235065.484                         477.785          30.242  
C27  21570292.197                        -842.879          39.118                                                                    21570308.086                        -634.277          28.460  
C28  24024458.014                       -2895.651          43.652                                                                    24024475.102                       -2179.473          26.061  
C13  40132711.802                       -1073.546          41.499                                                                                                                                  
C14  25891350.191                       -3193.651          42.041                                                                                                                                  
C30                                                                                                                                  22923638.995                        1598.208          34.017  
> 2025  3 26 17 18 12.0002735  0 23
G32  22124114.694                         104.976          42.676    22124135.680                          80.100          26.662  
G01  20792000.997                        1714.389          38.002    20792008.192                        1282.932          33.641  
G03  22455143.727                        3345.945          38.204    22455169.210                        2501.392          31.866  
G08  21868786.854                       -2941.897          40.450    21868798.846                       -2195.517          26.055  
G10  23337129.841                       -3017.405          45.071    23337142.732                       -2253.032          33.521  
G27  24725324.514                       -3933.560          33.652    24725346.998                       -2934.356          29.691  
G14  23279734.275                        -508.409          38.751    23279744.168                        -377.054          40.599  
E18                                                                  17794768.938                         368.865          30.249    17794756.646                         276.284          31.059  
E03                                                                  25210039.753                          23.006          40.569    25210049.946                          17.929          16.116  
E21                                                                  26772779.590                       -2575.281          36.880    26772802.674                       -1922.216          34.567  
E23                                                                  26223441.689                        -299.427          29.633    26223462.075                        -222.733          38.039  
E08                                                                  25750315.528                        2589.795          41.483    25750333.815                        1933.868          29.895  
E26                                                                  26227164.812                        2422.778          33.465    26227177.703                        1810.672          34.713  
E13                                                                  23319959.828                         421.500          36.342    23319973.918                         315.358          31.795  
E15                                                                  25046928.972                       -1992.019          38.514    25046949.358                       -1487.976          24.717  
C32  24773361.759                        3292.538          41.811                                                                    24773377.947                        2483.552          25.120  
C33  24007419.909                       -2339.948          42.587                                                                    24007460.381                       -1763.150          32.533  
C41  22234924.282                         631.902          39.981                                                                    22234943.769                         479.786          30.065  
C27  21570456.784                        -842.018          39.199                                                                    21570469.974                        -632.393          28.957  
C28  24025014.429                       -2895.011          43.355                                                                    24025030.018                       -2179.506          27.081  
C13  40132917.759                       -1071.612          41.702                                                                                                                                  
C30                                                                                                                                  22923231.277                        1600.249          33.844  
C14  25891965.965                       -3194.142          42.284                                                                                                                                  
> 2025  3 26 17 18 13.0002736  0 23
G32  22124095.507                         107.680          43.250    22124115.294                          81.140          26.172  
G01  20791669.727                        1719.224          37.725    20791681.418                        1283.763          34.049  
G03  22454504.270                        3350.393          38.364    22454531.851                        2502.581          31.897  
G08  21869351.663                       -2940.635          40.184    21869357.959                       -2193.947          26.325  
G10  23337705.443                       -3015.646          45.097    23337716.235                       -2252.181          33.403  
G27  24726070.997                       -3933.437          33.665    24726094.981                       -2933.283          29.593  
G14  23279821.215                        -504.254          37.794    23279840.102                        -376.925          40.668  
E18                                                                  17794687.694                         364.887          30.787    17794686.795                         275.986          31.166  
E03                                                                  25210029.859                          24.527          40.343                                                                  
E21                                                                  26773267.053                       -2573.122          37.369    26773292.535                       -1921.301          34.592  
E23                                                                  26223497.450                        -302.741          28.036    26223519.635                        -221.841          38.262  
E08                                                                  25749823.568                        2591.339          41.969    25749842.455                        1934.644          29.889  
E26                                                                  26226705.230                        2421.025          33.700    26226716.622                        1811.366          34.571  
E13                                                                  23319878.284                         423.746          36.715    23319892.674                         316.208          31.765  
E15                                                                  25047307.610                       -1989.765          38.870    25047328.295                       -1486.574          23.092  
C32  24772724.999                        3295.489          41.108                                                                    24772745.085                        2484.913          25.565  
C33  24007869.298                       -2338.524          42.802                                                                    24007909.470                       -1763.044          32.599  
C41  22234800.768                         635.841          39.840                                                                    22234821.154                         479.619          30.222  
C27  21570615.674                        -837.845          39.087                                                                    21570630.963                        -630.990          29.057  
C28  24025570.244                       -2890.271          43.670                                                                    24025586.433                       -2177.089          26.883  
C13  40133121.618                       -1067.942          41.604                                                                                                                                  
C30                                                                                                                                  22922823.260                        1600.702          34.338  
C14  25892576.942                       -3189.002          42.184                                                                                                                                  
> 2025  3 26 17 18 14.0002737  0 23
G32  22124081.717                         108.592          43.936    22124093.109                          81.217          24.090  
G01  20791345.051                        1719.052          37.693    20791354.645                        1283.469          33.808  
G03  22453869.010                        3351.690          38.531    22453893.893                        2501.693          31.602  
G08  21869908.677                       -2938.290          39.832    21869917.071                       -2194.912          26.292  
G10  23338278.046                       -3015.282          45.118    23338290.638                       -2252.831          33.523  
G27  24726815.682                       -3932.182          32.851    24726842.363                       -2932.898          30.024  
G14  23279917.449                        -506.358          36.254    23279936.935                        -377.608          40.549  
E18                                                                  17794619.341                         362.888          30.460    17794616.643                         274.758          31.582  
E03                                                                  25210025.962                          23.255          40.493                                                                  
E21                                                                  26773759.912                       -2573.837          37.735    26773782.396                       -1921.808          34.802  
E23                                                                  26223558.608                        -304.524          27.530    26223576.895                        -222.212          38.050  
E08                                                                  25749336.705                        2590.500          42.066    25749348.697                        1935.013          29.719  
E26                                                                  26226243.250                        2420.889          33.736    26226254.942                        1811.039          34.453  
E13                                                                  23319801.238                         422.417          36.797    23319812.929                         315.745          31.969  
E15                                                                  25047686.248                       -1990.964          38.760    25047708.432                       -1487.172          24.542  
C32  24772090.339                        3297.054          40.673                                                                    24772111.024                        2484.682          25.192  
C33  24008321.085                       -2337.398          43.014                                                                    24008358.859                       -1763.634          32.305  
C41  22234678.153                         636.286          39.889                                                                    22234699.138                         479.520          30.209  
C27  21570778.761                        -837.953          39.203                                                                    21570791.052                        -631.752          28.298  
C28  24026123.661                       -2888.321          43.284                                                                    24026141.348                       -2179.432          26.172  
C13  40133326.376                       -1068.472          41.769                                                                                                                                  
C30                                                                                                                                  22922415.542                        1599.889          34.337  
C14  25893188.519                       -3187.379          42.378                                                                                                                                  
> 2025  3 26 17 18 15.0002738  0 23
G32  22124061.031                         105.972          44.086    22124074.222                          79.845          25.189  
G01  20791019.477                        1717.751          38.231    20791027.871                        1281.721          33.815  
G03  22453235.548                        3348.536          39.030    22453257.134                        2500.191          31.565  
G08  21870461.495                       -2939.648          39.382    21870477.983                       -2196.823          26.465  
G10  23338854.847                       -3018.863          44.807    23338864.440                       -2254.045          33.979  
G27  24727562.465                       -3930.387          33.593    24727589.746                       -2935.296          29.390  
G14  23280015.481                        -510.135          35.950    23280033.768                        -379.225          40.790  
E18                                                                  17794547.991                         362.201          31.016    17794547.391                         272.462          31.036  
E03                                                                  25210020.566                          21.217          40.536    25210037.954                          18.322          13.710  
E21                                                                  26774247.374                       -2575.890          37.917    26774273.156                       -1923.270          34.956  
E23                                                                  26223613.770                        -304.478          27.706    26223633.856                        -223.644          38.052  
E08                                                                  25748840.848                        2588.628          42.131    25748855.838                        1933.343          30.276  
E26                                                                  26225772.575                        2421.779          33.868    26225793.561                        1809.849          33.999  
E13                                                                  23319719.694                         420.786          36.728    23319733.484                         314.398          31.612  
E15                                                                  25048058.590                       -1992.375          38.689    25048087.670                       -1487.605          23.977  
C32  24771457.477                        3295.498          40.602                                                                    24771476.664                        2481.927          25.413  
C33  24008769.874                       -2342.304          42.992                                                                    24008808.248                       -1764.718          31.783  
C41  22234557.936                         633.974          39.905                                                                    22234578.322                         477.308          30.213  
C27  21570938.250                        -838.878          39.264                                                                    21570952.041                        -633.548          27.458  
C28  24026681.874                       -2892.377          43.684                                                                    24026696.864                       -2179.422          26.323  
C13  40133531.135                       -1071.038          41.921                                                                                                                                  
C30                                                                                                                                  22922007.824                        1598.831          34.335  
C14  25893803.393                       -3190.218          42.836                                                                                                                                  
> 2025  3 26 17 18 16.0002739  0 23
G32  22124046.042                         102.215          44.459    22124052.637                          76.564          25.918  
G01  20790697.799                        1713.394          38.326    20790701.397                        1280.412          33.860  
G03  22452601.787                        3346.056          39.261    22452621.274                        2499.152          32.234  
G08  21871021.807                       -2942.897          39.324    21871037.396                       -2197.124          26.248  
G10  23339426.851                       -3020.161          44.856    23339439.442                       -2255.258          34.184  
G27  24728306.550                       -3930.368          33.050    24728338.627                       -2935.620          29.644  
G14  23280113.813                        -508.267          36.150    23280130.901                        -380.603          40.540  
E18                                                                  17794463.449                         361.590          30.802    17794478.439                         270.058          31.461  
E03                                                                  25210016.669                          19.157          40.188    25210036.455                          16.572          18.352  
E21                                                                  26774738.434                       -2577.680          38.264    26774763.617                       -1924.324          34.681  
E23                                                                  26223675.227                        -303.461          28.019    26223691.416                        -225.189          38.192  
E08                                                                  25748346.790                        2586.616          41.766    25748363.579                        1931.569          29.785  
E26                                                                                                                                  26225332.480                        1808.751          34.722  
E13                                                                  23319638.450                         418.894          36.971    23319653.740                         313.174          31.724  
E15                                                                  25048442.624                       -1994.326          38.887    25048464.509                       -1488.653          24.217  
C32  24770830.611                        3292.405          40.813                                                                    24770845.600                        2481.886          26.107  
C33  24009221.062                       -2345.101          43.293                                                                    24009258.836                       -1765.707          32.485  
C41  22234435.621                         633.073          39.788                                                                    22234456.606                         476.750          29.996  
C27  21571100.438                        -842.592          39.392                                                                    21571114.528                        -634.829          28.523  
C28  24027234.991                       -2895.593          43.432                                                                    24027253.279                       -2181.533          27.729  
C13  40133739.790                       -1073.070          42.134                                                                                                                                  
C14  25894416.169                       -3193.959          42.449                                                                                                                                  
C30                                                                                                                                  22921601.306                        1597.670          34.345  
> 2025  3 26 17 18 17.0002740  0 23
G32  22124021.459                          99.736          44.370    22124034.050                          75.620          25.989  
G01  20790367.128                        1711.795          38.695    20790375.223                        1279.720          33.899  
G03  22451969.225                        3342.890          39.250    22451983.915                        2498.419          31.954  
G08  21871586.316                       -2944.963          39.617    21871597.408                       -2199.114          25.245  
G10  23339999.155                       -3021.382          44.293    23340014.444                       -2255.590          33.825  
G27  24729059.328                       -3931.233          33.840    24729087.809                       -2936.422          29.758  
G14  23280204.350                        -507.940          34.718    23280227.734                        -381.178          40.375  
E18                                                                  17794404.390                         360.455          31.016    17794410.386                         268.954          30.997  
E03                                                                  25210013.071                          17.864          40.203    25210029.859                          17.482          17.989  
E21                                                                  26775229.794                       -2578.480          38.040    26775254.077                       -1925.300          34.580  
E23                                                                  26223731.289                        -302.797          27.944    26223748.677                        -226.291          38.154  
E08                                                                  25747854.231                        2585.533          42.233    25747871.919                        1931.586          30.265  
E26                                                                                                                                  26224872.299                        1808.135          34.444  
E13                                                                  23319556.607                         417.903          37.429    23319574.295                         312.529          31.719  
E15                                                                  25048822.461                       -1995.181          38.747    25048844.346                       -1489.316          23.509  
C32  24770194.451                        3290.241          40.607                                                                    24770212.439                        2480.253          24.981  
C33  24009672.250                       -2346.328          43.467                                                                    24009709.424                       -1767.227          31.943  
C41  22234314.804                         630.295          40.191                                                                    22234335.190                         475.087          30.585  
C27  21571261.726                        -843.904          39.216                                                                    21571276.416                        -636.191          28.031  
C28  24027791.406                       -2894.970          43.809                                                                    24027809.693                       -2182.400          26.936  
C13  40133944.548                       -1073.651          41.954                                                                                                                                  
C14  25895029.844                       -3194.035          42.624                                                                                                                                  
C30                                                                                                                                  22921193.888                        1597.076          34.054  
> 2025  3 26 17 18 18.0002741  0 23
G32  22124001.073                          99.963          44.264    22124015.463                          75.400          25.375  
G01  20790041.554                        1712.090          38.666    20790048.749                        1279.430          33.867  
G03  22451326.170                        3345.591          38.782    22451346.856                        2498.526          31.847  
G08  21872150.825                       -2943.728          39.983    21872156.221                       -2198.008          25.810  
G10  23340573.257                       -3021.619          44.291    23340588.847                       -2255.682          33.777  
G27  24729808.210                       -3932.020          34.659    24729836.391                       -2935.792          29.853  
G14  23280298.785                        -509.806          33.432    23280324.866                        -381.436          40.703  
E18                                                                  17794333.339                         359.118          30.549    17794342.333                         267.454          30.915  
E03                                                                  25210010.673                          18.206          40.497    25210026.562                          15.011          15.112  
E21                                                                  26775718.456                       -2577.785          37.849    26775744.538                       -1924.669          34.678  
E23                                                                                                                                  26223806.237                        -226.124          38.479  
E08                                                                  25747361.672                        2586.163          42.021    25747379.660                        1932.039          30.399  
E26                                                                                                                                  26224411.218                        1808.118          34.130  
E13                                                                  23319477.162                         418.415          37.278    23319494.550                         312.851          31.216  
E15                                                                  25049203.497                       -1994.413          39.102    25049223.883                       -1487.564          24.247  
C32  24769564.287                        3289.202          40.857                                                                    24769579.277                        2481.442          25.784  
C33  24010124.637                       -2344.137          43.646                                                                    24010159.113                       -1766.738          31.859  
C41  22234195.787                         630.563          40.390                                                                    22234213.474                         475.396          30.387  
C27  21571423.614                        -845.067          39.424                                                                    21571438.904                        -635.732          28.167  
C28  24028349.020                       -2894.800          43.493                                                                    24028366.108                       -2180.845          27.460  
C13  40134150.206                       -1070.923          42.092                                                                                                                                  
C14  25895642.320                       -3192.208          42.503                                                                                                                                  
C30                                                                                                                                  22920786.770                        1597.302          34.018  
> 2025  3 26 17 18 19.0002742  0 23
G32  22123983.385                         100.664          44.302    22123997.175                          74.085          25.841  
G01  20789718.078                        1713.494          38.926    20789723.474                        1279.457          34.196  
G03  22450683.715                        3345.643          38.239    22450709.497                        2497.824          32.275  
G08  21872705.141                       -2943.751          39.330    21872716.833                       -2197.767          26.441  
G10  23341146.760                       -3021.055          44.071    23341164.148                       -2256.118          33.919  
G27  24730556.492                       -3932.125          34.733    24730584.672                       -2936.551          29.403  
G14  23280395.018                        -513.035          33.346    23280423.198                        -382.293          40.638  
E18                                                                  17794264.087                         357.278          30.914    17794273.980                         265.697          30.634  
E03                                                                  25210009.474                          17.076          40.758    25210025.662                          12.568          16.271  
E21                                                                  26776208.916                       -2578.506          37.534    26776235.898                       -1925.680          34.481  
E23                                                                                                                                  26223864.396                        -226.223          38.638  
E08                                                                  25746873.910                        2585.255          42.294    25746887.701                        1930.672          30.116  
E26                                                                                                                                  26223950.437                        1808.117          34.223  
E13                                                                  23319400.715                         417.455          37.202    23319414.805                         311.904          31.997  
E15                                                                  25049582.735                       -1995.328          39.000    25049602.521                       -1490.564          22.505  
C32  24768931.725                        3292.099          41.049                                                                    24768947.914                        2480.311          26.135  
C33  24010572.227                       -2343.226          43.622                                                                    24010609.401                       -1767.199          31.769  
C41  22234074.071                         631.022          40.084                                                                    22234093.258                         474.793          30.140  
C27  21571588.800                        -842.570          39.431                                                                    21571600.492                        -635.766          28.667  
C28  24028901.837                       -2896.226          43.340                                                                    24028922.223                       -2181.815          26.517  
C13  40134356.763                       -1070.464          42.131                                                                                                                                  
C14  25896256.295                       -3192.757          42.832                                                                                                                                  
C30                                                                                                                                  22920380.251                        1596.663          34.358  
> 2025  3 26 17 18 20.0002743  0 23
G32  22123966.297                          98.498          44.524    22123976.790                          74.812          25.950  
G01  20789389.505                        1712.866          38.341    20789397.600                        1278.342          33.938  
G03  22450046.956                        3343.568          37.924    22450073.637                        2497.045          32.707  
G08  21873259.458                       -2946.686          38.798    21873277.145                       -2199.757          25.819  
G10  23341726.259                       -3021.468          44.431    23341739.750                       -2256.396          34.022  
G27  24731305.374                       -3932.818          35.339    24731333.254                       -2936.360          29.706  
G14  23280492.750                        -514.374          33.717    23280520.031                        -383.659          40.699  
E18                                                                  17794208.626                         354.892          30.941    17794206.227                         264.485          30.942  
E03                                                                  25210006.176                          15.844          40.968    25210021.166                          12.927          17.786  
E21                                                                  26776702.674                       -2579.893          37.642    26776726.958                       -1926.340          34.850  
E23                                                                                                                                  26223921.357                        -227.462          38.690  
E08                                                                  25746380.751                        2584.242          42.281    25746396.041                        1930.350          30.544  
E26                                                                  26223476.165                        2420.654          34.495    26223489.656                        1807.428          34.533  
E13                                                                  23319317.672                         416.691          37.436    23319335.660                         311.151          32.070  
E15                                                                  25049970.067                       -1996.151          39.393    25049982.658                       -1490.118          24.801  
C32  24768297.664                        3291.125          41.044                                                                    24768316.251                        2480.463          26.202  
C33  24011024.913                       -2344.387          43.643                                                                    24011059.989                       -1768.400          32.188  
C41  22233952.955                         627.073          40.039                                                                    22233972.141                         473.541          30.422  
C27  21571747.390                        -845.673          39.457                                                                    21571762.679                        -636.922          27.705  
C28  24029460.651                       -2896.218          43.515                                                                    24029478.039                       -2182.813          27.198  
C13  40134559.722                       -1072.759          42.183                                                                                                                                  
C30                                                                                                                                  22919973.732                        1595.679          34.402  
C14  25896870.270                       -3194.869          42.497                                                                                                                                  
> 2025  3 26 17 18 21.0002744  0 23
G32  22123950.708                          95.973          44.873    22123960.001                          73.461          25.155  
G01  20789069.627                        1713.563          39.037    20789072.025                        1278.089          34.350  
G03  22449413.195                        3339.992          38.072    22449437.778                        2496.945          32.345  
G08  21873825.766                       -2947.183          39.690    21873837.757                       -2199.586          25.868  
G10  23342300.662                       -3022.431          44.512    23342315.052                       -2256.964          34.205  
G27  24732050.957                       -3934.056          34.509    24732082.735                       -2937.621          29.571  
G14  23280593.181                        -513.751          34.335    23280618.363                        -384.114          40.660  
E18                                                                  17794136.076                         352.136          31.406    17794138.774                         263.370          31.098  
E03                                                                  25210002.578                          15.039          40.746    25210018.767                          12.880          17.770  
E21                                                                  26777192.535                       -2580.807          37.470    26777217.718                       -1926.650          34.618  
E23                                                                                                                                  26223980.716                        -228.291          38.647  
E08                                                                  25745889.092                        2583.589          42.234    25745903.482                        1929.817          30.926  
E26                                                                  26223014.185                        2419.807          34.645    26223029.474                        1807.097          34.335  
E13                                                                  23319238.827                         416.031          37.380    23319255.915                         311.100          32.039  
E15                                                                  25050346.606                       -1996.585          39.887    25050362.195                       -1490.945          24.718  
C32  24767664.203                        3289.234          40.867                                                                    24767684.889                        2478.442          26.545  
C33  24011477.300                       -2346.436          43.457                                                                    24011510.277                       -1768.426          32.387  
C41  22233833.038                         623.622          40.230                                                                    22233851.625                         473.350          30.735  
C27  21571912.576                        -847.772          39.679                                                                    21571926.066                        -637.093          28.219  
C28  24030015.267                       -2897.196          43.384                                                                    24030034.453                       -2181.508          26.418  
C13  40134768.978                       -1075.512          42.115                                                                                                                                  
C14  25897481.846                       -3195.812          42.652                                                                                                                                  
C30                                                                                                                                  22919567.514                        1595.438          34.188  
> 2025  3 26 17 18 22.0002745  0 23
G32  22123931.221                          96.197          44.635    22123942.913                          70.466          24.841  
G01  20788746.151                        1713.595          39.007    20788746.750                        1277.377          34.015  
G03  22448777.335                        3341.160          38.265    22448801.918                        2496.154          32.099  
G08  21874380.981                       -2947.272          39.182    21874399.868                       -2200.195          26.248  
G10  23342875.064                       -3022.846          44.740    23342889.754                       -2257.537          34.078  
G27  24732802.837                       -3934.973          34.653    24732830.718                       -2937.985          29.662  
G14  23280698.108                        -514.273          35.190    23280716.395                        -384.554          40.260  
E18                                                                  17794052.434                         349.764          31.101    17794072.220                         261.778          31.072  
E03                                                                  25210001.379                          14.616          41.128    25210016.669                          12.510          16.737  
E21                                                                  26777680.298                       -2580.312          37.767    26777708.178                       -1926.991          34.760  
E23                                                                                                                                  26224039.175                        -228.713          38.459  
E08                                                                  25745395.933                        2583.332          42.216    25745412.722                        1928.963          30.610  
E26                                                                  26222552.205                        2419.142          34.297    26222568.993                        1806.821          34.240  
E13                                                                  23319167.476                         415.416          37.386    23319177.369                         310.625          31.892  
E15                                                                  25050727.342                       -1996.947          40.245    25050742.632                       -1493.345          22.345  
C32  24767031.641                        3287.719          40.600                                                                    24767051.427                        2479.091          25.996  
C33  24011926.989                       -2347.781          43.540                                                                    24011961.165                       -1768.568          32.222  
C41  22233711.622                         624.320          40.115                                                                    22233731.108                         472.435          29.885  
C27  21572076.262                        -846.022          39.774                                                                    21572089.453                        -638.128          28.294  
C28  24030572.281                       -2898.069          43.580                                                                    24030589.069                       -2183.272          26.692  
C13  40134974.935                       -1075.641          41.933                                                                                                                                  
C14  25898095.222                       -3196.125          42.387                                                                                                                                  
C30                                                                                                                                  22919161.295                        1595.304          34.239  
> 2025  3 26 17 18 23.0002746  0 23
G32  22123913.234                          96.702          44.976    22123923.726                          71.524          25.822  
G01  20788415.779                        1709.035          38.339    20788421.475                        1276.556          34.144  
G03  22448149.569                        3342.376          38.441    22448165.758                        2495.427          32.051  
G08  21874943.991                       -2947.573          39.386    21874960.480                       -2201.455          26.673  
G10  23343453.963                       -3022.705          44.542    23343464.756                       -2257.954          34.272  
G27  24733547.222                       -3935.702          34.422    24733579.299                       -2937.874          29.306  
G14  23280801.536                        -516.553          36.347    23280814.727                        -385.664          40.696  
E18                                                                  17793984.081                         347.611          30.660    17794005.966                         260.514          31.402  
E03                                                                  25210001.679                          13.682          41.239    25210014.570                          10.753          14.095  
E21                                                                  26778174.955                       -2581.365          38.025    26778199.238                       -1927.487          34.923  
E23                                                                  26224077.549                        -308.756          27.959    26224097.635                        -229.890          38.156  
E08                                                                  25744903.974                        2582.591          41.933    25744921.362                        1928.695          30.613  
E26                                                                  26222085.128                        2418.595          34.168    26222108.812                        1806.773          34.697  
E13                                                                  23319085.333                         415.019          37.425    23319097.924                         310.052          32.059  
E15                                                                  25051107.779                       -1997.602          40.381    25051123.668                       -1491.713          22.188  
C32  24766402.077                        3287.088          40.892                                                                    24766420.664                        2478.385          25.926  
C33  24012378.176                       -2347.944          43.708                                                                    24012411.753                       -1769.346          32.093  
C41  22233590.206                         626.872          39.825                                                                    22233611.791                         471.442          30.152  
C27  21572236.352                        -847.991          39.530                                                                    21572252.540                        -639.092          28.792  
C28  24031128.396                       -2899.250          43.045                                                                    24031145.784                       -2184.831          26.044  
C13  40135181.792                       -1074.196          41.766                                                                                                                                  
C30                                                                                                                                  22918755.076                        1594.165          34.600  
C14  25898709.197                       -3195.866          42.486                                                                                                                                  
> 2025  3 26 17 18 24.0002747  0 23
G32  22123892.248                          94.629          44.554    22123905.139                          70.639          25.838  
G01  20788090.205                        1706.951          38.111    20788096.500                        1275.994          33.856  
G03  22447514.309                        3340.598          38.879    22447529.599                        2495.611          32.307  
G08  21875502.205                       -2947.088          38.529    21875523.490                       -2202.171          26.118  
G10  23344025.667                       -3024.494          44.186    23344040.657                       -2258.496          34.127  
G27  24734297.602                       -3935.246          34.856    24734329.080                       -2938.670          30.034  
G14  23280901.667                        -518.048          37.082    23280912.759                        -386.153          40.854  
E18                                                                  17793923.823                         345.834          30.773    17793940.311                         258.752          31.319  
E03                                                                  25209997.482                          12.387          40.873    25210016.669                           9.181          18.147  
E21                                                                  26778674.110                       -2582.670          38.036    26778690.898                       -1927.744          34.855  
E23                                                                  26224134.509                        -309.803          28.983    26224156.095                        -230.273          38.833  
E08                                                                  25744407.218                        2581.578          41.933    25744430.002                        1927.879          30.998  
E26                                                                  26221630.343                        2418.190          33.674    26221648.331                        1806.365          34.417  
E13                                                                  23319005.289                         414.156          36.948    23319019.079                         309.332          31.881  
E15                                                                  25051488.515                       -1998.322          40.249    25051503.805                       -1491.479          23.273  
C32  24765769.515                        3286.905          40.954                                                                    24765789.601                        2478.770          26.109  
C33  24012830.563                       -2349.395          43.657                                                                    24012863.540                       -1770.483          31.997  
C41  22233470.589                         625.784          39.745                                                                    22233490.974                         470.874          29.943  
C27  21572400.938                        -848.890          39.403                                                                    21572415.328                        -639.833          28.569  
C28  24031683.911                       -2899.498          43.012                                                                    24031702.798                       -2184.565          26.684  
C13  40135388.049                       -1074.345          42.043                                                                                                                                  
C30  22918331.169                        2111.894          36.689                                                                    22918348.857                        1593.642          34.307  
C14  25899323.771                       -3196.734          42.299                                                                                                                                  
> 2025  3 26 17 18 25.0002748  0 23
G32  22123870.963                          92.021          44.182    22123887.451                          69.802          26.538  
G01  20787767.328                        1707.275          38.554    20787771.225                        1275.471          34.088  
G03  22446879.349                        3339.557          39.090    22446894.638                        2494.356          32.307  
G08  21876062.817                       -2948.060          38.407    21876083.503                       -2202.973          26.608  
G10  23344603.068                       -3025.715          44.614    23344616.558                       -2259.254          33.894  
G27  24735046.783                       -3934.996          34.504    24735077.362                       -2938.897          30.248  
G14  23280997.601                        -519.084          36.860    23281011.991                        -387.112          40.962  
E18                                                                  17793859.068                         343.858          31.206    17793874.357                         257.086          30.808  
E03                                                                  25209996.583                          10.855          40.944    25210013.671                           7.696          18.720  
E21                                                                  26779161.272                       -2583.530          38.110    26779182.857                       -1929.172          34.931  
E23                                                                                                                                  26224215.453                        -231.411          38.535  
E08                                                                  25743920.055                        2580.363          41.948    25743938.942                        1927.227          30.950  
E26                                                                  26221171.061                        2417.523          34.339    26221188.149                        1805.524          34.250  
E13                                                                  23318925.844                         412.582          37.034    23318939.934                         308.743          31.862  
E15                                                                  25051869.851                       -1999.597          40.864    25051883.642                       -1492.770          22.029  
C32  24765138.152                        3286.873          40.774                                                                    24765158.538                        2477.127          26.404  
C33  24013282.950                       -2350.442          43.458                                                                    24013315.028                       -1771.491          32.180  
C41  22233347.374                         623.059          39.595                                                                    22233371.357                         470.414          30.407  
C27  21572562.826                        -849.860          39.330                                                                    21572578.415                        -640.398          29.208  
C28  24032240.926                       -2899.239          43.181                                                                    24032260.113                       -2184.473          25.930  
C13  40135594.606                       -1075.010          41.987                                                                                                                                  
C14  25899937.446                       -3198.352          42.194                                                                                                                                  
C30  22917923.452                        2111.485          35.968                                                                    22917942.938                        1593.076          34.105  
> 2025  3 26 17 18 26.0002749  0 23
G32  22123855.074                          91.281          44.361    22123870.363                          67.040          25.543  
G01  20787440.854                        1708.070          37.896    20787447.150                        1274.121          34.234  
G03  22446241.990                        3338.967          38.824    22446259.978                        2493.327          32.426  
G08  21876621.930                       -2951.011          38.400    21876645.913                       -2203.647          26.077  
G10  23345177.770                       -3026.213          44.886    23345192.759                       -2259.874          34.034  
G27  24735792.067                       -3935.803          34.093    24735826.244                       -2939.605          29.643  
G14  23281096.832                        -520.155          36.933    23281111.222                        -388.623          40.758  
E18                                                                                                                                  17793809.602                         255.321          30.996  
E03                                                                  25209996.882                           9.722          41.260    25210009.474                           7.480          18.554  
E21                                                                  26779659.228                       -2584.379          38.129    26779674.217                       -1929.732          34.658  
E23                                                                                                                                  26224274.812                        -232.566          38.502  
E08                                                                  25743430.194                        2579.332          41.847    25743447.882                        1925.925          30.674  
E26                                                                  26220713.578                        2416.665          33.925    26220728.567                        1804.827          34.449  
E13                                                                  23318847.898                         412.025          36.777    23318861.988                         308.004          31.403  
E15                                                                  25052252.387                       -2000.730          40.909    25052264.378                       -1493.094          23.119  
C32  24764510.386                        3286.744          40.806                                                                    24764527.474                        2477.005          25.394  
C33  24013732.639                       -2352.181          43.744                                                                    24013766.815                       -1772.105          32.735  
C41  22233227.757                         621.156          39.519                                                                    22233252.340                         468.802          30.405  
C27  21572729.510                        -851.502          39.482                                                                    21572742.401                        -641.520          28.672  
C28  24032797.940                       -2899.604          43.192                                                                    24032815.628                       -2186.240          25.506  
C13  40135798.765                       -1074.544          41.886                                                                                                                                  
C30  22917517.233                        2111.904          36.047                                                                    22917537.019                        1591.742          34.131  
C14  25900549.623                       -3199.907          42.172                                                                                                                                  
> 2025  3 26 17 18 27.0002750  0 23
G32  22123838.885                          90.896          44.588    22123851.776                          68.861          26.230  
G01  20787116.179                        1707.218          37.388    20787121.875                        1273.689          34.333  
G03  22445604.032                        3338.391          38.556    22445624.118                        2493.033          32.522  
G08  21877192.435                       -2954.971          38.713    21877207.125                       -2203.371          26.928  
G10  23345757.568                       -3028.103          44.658    23345768.661                       -2260.224          33.923  
G27  24736539.450                       -3936.585          33.197    24736575.125                       -2939.423          29.703  
G14  23281201.759                        -523.259          37.725    23281210.753                        -389.029          40.407  
E18                                                                                                                                  17793745.446                         253.672          30.522  
E03                                                                  25209995.683                           8.838          41.282    25210008.574                           8.133          18.500  
E21                                                                  26780151.787                       -2585.026          38.266    26780166.477                       -1930.112          34.493  
E23                                                                                                                                  26224334.171                        -232.798          38.484  
E08                                                                  25742938.834                        2578.639          41.733    25742957.421                        1925.869          31.122  
E26                                                                  26220253.096                        2415.854          33.675    26220268.686                        1804.404          34.604  
E13                                                                  23318768.453                         411.368          36.892    23318783.442                         307.832          31.378  
E15                                                                  25052631.624                       -2001.139          41.066    25052645.414                       -1493.948          22.888  
C32  24763879.323                        3285.478          40.804                                                                    24763898.510                        2475.825          25.009  
C33  24014182.627                       -2352.064          43.472                                                                    24014218.303                       -1772.804          32.697  
C41  22233109.938                         620.817          39.500                                                                    22233132.722                         468.415          29.581  
C27  21572891.398                        -853.657          39.662                                                                    21572905.488                        -642.198          29.337  
C28  24033357.653                       -2901.306          43.366                                                                    24033374.441                       -2187.954          24.779  
C13  40136007.420                       -1075.946          41.916                                                                                                                                  
C14  25901165.097                       -3199.712          42.080                                                                                                                                  
C30                                                                                                                                  22917132.000                        1591.247          34.119  
> 2025  3 26 17 18 28.0002751  0 23
G32  22123822.696                          90.421          44.580    22123834.988                          66.818          25.570  
G01  20786778.912                        1705.029          36.678    20786797.799                        1273.326          34.023  
G03  22444970.570                        3336.694          38.833    22444989.157                        2493.036          32.010  
G08  21877756.944                       -2953.565          39.247    21877768.336                       -2203.591          26.825  
G10  23346329.273                       -3028.532          44.364    23346345.461                       -2260.662          34.384  
G27  24737289.231                       -3938.232          33.241    24737324.607                       -2939.833          29.098  
G14  23281308.186                        -524.785          38.395    23281309.984                        -389.934          40.741  
E18                                                                                                                                  17793680.991                         252.532          31.029  
E03                                                                  25209994.184                           8.231          41.177    25210006.176                           9.713          17.674  
E21                                                                  26780639.549                       -2585.367          37.676    26780658.436                       -1930.546          34.697  
E23                                                                                                                                  26224393.230                        -233.360          38.672  
E08                                                                  25742454.070                        2578.204          41.863    25742467.860                        1925.521          30.994  
E26                                                                  26219793.814                        2415.150          33.038    26219809.404                        1804.309          34.116  
E13                                                                  23318693.504                         411.143          37.079    23318706.096                         307.116          31.477  
E15                                                                  25053011.461                       -2001.464          40.967    25053026.151                       -1494.807          23.459  
C32  24763248.260                        3284.233          40.560                                                                    24763267.746                        2476.898          24.436  
C33  24014636.813                       -2352.532          43.773                                                                    24014670.090                       -1772.421          32.130  
C41  22232989.721                         620.323          39.613                                                                    22233014.304                         467.702          30.005  
C27  21573057.183                        -852.612          39.770                                                                    21573069.775                        -642.718          28.236  
C28  24033912.569                       -2902.220          43.103                                                                    24033930.856                       -2187.231          25.532  
C13  40136214.877                       -1075.484          42.201                                                                                                                                  
C30                                                                                                                                  22916726.680                        1591.310          34.052  
C14  25901779.371                       -3199.392          41.789                                                                                                                                  
> 2025  3 26 17 18 29.0002752  0 23
G32  22123801.711                          88.660          44.181    22123819.698                          66.612          26.165  
G01  20786456.336                        1702.370          36.374    20786473.124                        1272.600          34.356  
G03  22444335.910                        3337.536          38.814    22444353.897                        2492.091          32.208  
G08  21878312.160                       -2953.236          39.201    21878330.447                       -2204.804          26.530  
G10  23346907.572                       -3027.992          44.248    23346921.962                       -2261.423          34.333  
G27  24738040.811                       -3938.248          33.569    24738073.188                       -2940.913          30.360  
G14  23281403.820                        -523.677          37.745    23281409.516                        -390.866          40.971  
E18                                                                                                                                  17793616.236                         250.950          31.331  
E03                                                                  25209991.786                           7.312          41.199    25210004.077                           5.122          19.011  
E21                                                                  26781131.209                       -2585.733          37.678    26781150.395                       -1931.363          35.052  
E23                                                                                                                                  26224453.489                        -234.326          38.610  
E08                                                                  25741961.511                        2577.443          41.887    25741977.100                        1924.986          30.520  
E26                                                                  26219336.931                        2414.527          33.342    26219349.822                        1803.637          34.206  
E13                                                                  23318614.959                         410.000          37.021    23318628.150                         306.151          31.347  
E15                                                                  25053393.397                       -2001.885          41.445    25053407.187                       -1494.282          21.136  
C32  24762616.597                        3283.879          40.329                                                                    24762635.784                        2475.276          24.552  
C33  24015087.101                       -2354.327          43.704                                                                    24015122.477                       -1774.134          32.189  
C41  22232869.505                         619.089          39.428                                                                    22232895.587                         466.143          30.795  
C27  21573222.369                        -853.156          39.869                                                                    21573232.562                        -643.303          28.568  
C28  24034471.681                       -2903.566          42.828                                                                    24034487.271                       -2185.646          25.646  
C13  40136420.534                       -1076.051          42.126                                                                                                                                  
C14  25902395.145                       -3200.657          42.006                                                                                                                                  
C30                                                                                                                                  22916321.361                        1590.278          34.473  
> 2025  3 26 17 18 30.0002753  0 23
G32  22123793.317                          88.003          44.454    22123801.711                          65.298          26.213  
G01  20786125.665                        1704.429          35.673    20786149.048                        1271.998          34.248  
G03  22443702.748                        3335.705          39.080    22443719.536                        2491.435          32.022  
G08  21878873.371                       -2954.035          39.090    21878893.757                       -2205.569          26.251  
G10  23347483.174                       -3029.159          44.104    23347497.864                       -2261.563          34.359  
G27  24738786.395                       -3938.289          33.398    24738823.269                       -2939.609          30.554  
G14  23281494.057                        -527.132          36.934    23281509.646                        -391.420          40.751  
E18                                                                                                                                  17793552.380                         249.492          30.830  
E03                                                                  25209990.587                           6.171          41.466    25210004.077                           4.581          18.601  
E21                                                                  26781625.866                       -2587.151          37.113    26781642.655                       -1931.402          34.729  
E23                                                                                                                                  26224513.447                        -234.731          38.677  
E08                                                                  25741470.151                        2576.714          41.831    25741486.040                        1924.187          30.896  
E26                                                                  26218876.450                        2414.016          33.331    26218890.240                        1803.461          34.182  
E13                                                                  23318534.315                         408.929          37.246    23318549.904                         306.117          31.723  
E15                                                                  25053781.628                       -2002.576          41.486    25053788.523                       -1495.258          23.249  
C32  24761985.234                        3283.389          40.680                                                                    24762006.220                        2474.041          25.464  
C33  24015536.490                       -2355.547          43.407                                                                    24015574.564                       -1774.323          32.205  
C41  22232748.688                         618.036          39.160                                                                    22232776.269                         466.329          30.137  
C27  21573387.255                        -854.748          39.822                                                                    21573397.448                        -644.392          28.649  
C28  24035026.597                       -2902.963          42.536                                                                    24035044.885                       -2188.728          25.099  
C13  40136628.890                       -1077.836          42.628                                                                                                                                  
C14  25903007.621                       -3199.864          42.123                                                                                                                                  
C30                                                                                                                                  22915916.341                        1589.770          34.317  
> 2025  3 26 17 18 31.0002754  0 23
G32  22123769.933                          86.487          44.426    22123785.822                          63.997          26.645  
G01  20785800.989                        1705.381          35.329    20785825.273                        1271.450          34.011  
G03  22443065.989                        3335.359          39.469    22443084.276                        2491.319          32.205  
G08  21879438.780                       -2955.542          39.278    21879454.369                       -2206.394          26.762  
G10  23348060.274                       -3029.579          44.189    23348074.664                       -2261.902          34.601  
G27  24739538.874                       -3938.673          34.025    24739573.050                       -2941.198          29.994  
G14  23281588.192                        -528.795          35.666    23281609.777                        -391.967          40.652  
E18                                                                                                                                  17793489.424                         248.012          31.008  
E03                                                                  25209988.788                           5.410          41.452    25210001.379                           5.121          18.185  
E21                                                                  26782116.327                       -2587.386          36.317    26782134.914                       -1931.811          35.085  
E23                                                                                                                                  26224573.406                        -234.981          38.664  
E08                                                                  25740978.791                        2576.067          42.237    25740996.179                        1924.064          30.654  
E26                                                                  26218415.669                        2413.899          33.848    26218430.658                        1803.313          34.530  
E13                                                                  23318453.670                         408.947          37.293    23318472.258                         305.746          31.583  
E15                                                                  25054158.167                       -2003.191          41.478    25054169.559                       -1495.524          24.500  
C32  24761352.972                        3281.917          40.493                                                                    24761374.557                        2475.767          26.183  
C33  24015988.877                       -2355.399          43.337                                                                    24016027.250                       -1774.615          32.415  
C41  22232632.069                         616.926          39.131                                                                    22232657.551                         465.673          30.912  
C27  21573553.939                        -856.151          39.903                                                                    21573561.434                        -644.332          28.645  
C28  24035586.610                       -2903.540          42.779                                                                    24035603.098                       -2188.430          24.607  
C13  40136835.747                       -1078.332          42.176                                                                                                                                  
C30  22915501.728                        2108.251          36.726                                                                    22915511.921                        1589.273          34.324  
C14  25903620.996                       -3200.228          41.875                                                                                                                                  
> 2025  3 26 17 18 32.0002755  0 23
G32  22123751.645                          85.582          43.927    22123770.832                          63.218          27.007  
G01  20785472.417                        1702.141          35.689    20785501.497                        1270.950          34.651  
G03  22442430.729                        3334.139          39.480    22442449.615                        2490.452          32.340  
G08  21879999.092                       -2953.187          39.254    21880015.880                       -2207.622          26.805  
G10  23348637.674                       -3029.391          44.349    23348651.165                       -2262.547          34.600  
G27  24740290.453                       -3939.779          34.764    24740322.231                       -2941.473          29.618  
G14  23281682.327                        -526.689          35.716    23281710.507                        -393.284          40.730  
E18                                                                                                                                  17793427.367                         246.748          31.256  
E03                                                                  25209986.090                           4.450          41.390    25210001.079                           3.287          17.762  
E21                                                                  26782608.886                       -2588.123          36.909    26782627.773                       -1932.774          34.816  
E23                                                                  26224614.777                        -317.254          31.668    26224633.664                        -236.522          38.425  
E08                                                                  25740487.731                        2575.370          42.317    25740505.719                        1923.026          31.084  
E26                                                                  26217954.288                        2413.632          33.644    26217971.376                        1802.824          34.796  
E13                                                                  23318377.823                         407.910          37.416    23318394.012                         304.533          31.052  
E15                                                                  25054539.203                       -2003.760          41.463    25054550.895                       -1496.305          23.906  
C32  24760725.806                        3282.095          40.567                                                                    24760743.794                        2475.105          24.985  
C33  24016441.264                       -2355.561          43.294                                                                    24016479.637                       -1775.423          32.594  
C41  22232515.450                         615.454          39.399                                                                    22232539.133                         464.514          29.981  
C27  21573719.125                        -858.038          40.135                                                                    21573725.121                        -646.277          28.268  
C28  24036145.423                       -2905.682          42.893                                                                    24036160.712                       -2188.425          24.129  
C13  40137044.103                       -1076.759          42.354                                                                                                                                  
C30                                                                                                                                  22915106.902                        1588.700          34.186  
C14  25904238.269                       -3201.593          41.999                                                                                                                                  
> 2025  3 26 17 18 33.0002756  0 23
G32  22123736.656                          84.634          44.900    22123754.643                          64.129          27.151  
G01  20785154.637                        1699.292          37.615    20785177.721                        1270.626          33.904  
G03  22441795.168                        3331.881          37.086    22441814.955                        2490.312          32.021  
G08  21880556.106                       -2954.796          40.631    21880578.291                       -2207.805          26.149  
G10  23349215.075                       -3030.119          45.502    23349228.266                       -2262.516          35.087  
G27  24741057.922                       -3940.359          39.807    24741071.113                       -2941.545          29.132  
G14  23281788.453                        -526.764          38.777    23281810.638                        -393.476          40.579  
E18                                                                                                                                  17793364.710                         245.630          31.009  
E03                                                                  25209983.092                           3.689          41.845    25210001.679                           2.869          17.148  
E21                                                                                                                                  26783120.032                       -1932.781          35.088  
E23                                                                  26224684.029                        -318.222          34.978    26224693.922                        -236.687          38.454  
E08                                                                  25740001.468                        2574.837          43.746    25740015.258                        1923.131          31.272  
E26                                                                  26217494.107                        2413.372          34.043    26217511.794                        1802.600          34.568  
E13                                                                  23318302.575                         407.648          39.309    23318316.066                         304.807          31.133  
E15                                                                  25054919.340                       -2004.278          42.155    25054932.531                       -1496.417          22.900  
C32  24760095.642                        3282.573          41.450                                                                    24760114.230                        2473.179          25.962  
C33  24016899.047                       -2355.898          45.199                                                                    24016932.024                       -1775.369          32.494  
C41  22232396.732                         614.331          41.806                                                                    22232421.315                         464.395          29.912  
C27  21573884.011                        -857.534          42.774                                                                    21573890.906                        -646.173          28.704  
C28  24036700.638                       -2906.053          44.679                                                                    24036718.326                       -2188.852          24.617  
C13  40137250.660                       -1077.609          43.605                                                                                                                                  
C30                                                                                                                                  22914702.182                        1588.502          33.805  
C14  25904853.743                       -3203.160          43.506                                                                                                                                  
> 2025  3 26 17 18 34.0002757  0 23
G32  22123718.368                          82.480          45.078    22123739.054                          62.436          27.114  
G01  20784833.259                        1699.458          38.211    20784854.245                        1270.110          33.917  
G03  22441157.210                        3333.330          36.189    22441180.294                        2489.982          32.375  
G08  21881123.014                       -2957.609          41.355    21881141.601                       -2207.734          26.481  
G10  23349794.274                       -3030.865          45.998    23349804.767                       -2263.028          34.944  
G27  24741801.407                       -3941.005          41.335    24741821.493                       -2941.262          29.386  
G14  23281887.984                        -529.859          38.546    23281910.769                        -394.242          40.748  
E18                                                                  17793289.162                         326.080          34.893    17793303.252                         243.836          31.456  
E03                                                                  25209983.392                           3.089          42.193    25210001.679                           3.616          19.570  
E21                                                                                                                                  26783613.490                       -1933.223          35.120  
E23                                                                  26224742.189                        -318.783          35.400    26224755.080                        -237.093          38.599  
E08                                                                  25739508.609                        2574.492          43.960    25739525.697                        1922.675          31.500  
E26                                                                  26217036.024                        2413.032          33.807    26217052.812                        1801.974          34.412  
E13                                                                  23318215.935                         407.123          39.351    23318238.719                         304.509          31.582  
E15                                                                  25055302.475                       -2004.390          42.216    25055313.867                       -1495.557          23.544  
C32  24759466.078                        3282.283          41.503                                                                    24759482.567                        2474.343          26.913  
C33  24017350.534                       -2356.835          45.706                                                                    24017385.010                       -1776.347          32.424  
C41  22232278.014                         613.604          42.182                                                                    22232303.197                         463.972          29.025  
C27  21574047.398                        -858.079          42.898                                                                    21574054.893                        -646.603          28.974  
C28  24037261.550                       -2906.199          45.044                                                                    24037275.940                       -2190.455          24.112  
C13  40137457.217                       -1077.982          43.687                                                                                                                                  
C30                                                                                                                                  22914297.462                        1588.153          34.516  
C14  25905468.617                       -3203.372          43.348                                                                                                                                  
> 2025  3 26 17 18 35.0002758  0 23
G32  22123706.077                          81.598          45.440    22123722.865                          62.992          26.929  
G01  20784515.779                        1699.865          39.010    20784530.769                        1268.753          34.155  
G03  22440525.248                        3333.155          35.870    22440546.233                        2488.845          32.364  
G08  21881686.324                       -2959.919          41.553    21881704.311                       -2208.783          25.567  
G10  23350367.177                       -3031.856          45.871    23350381.567                       -2263.970          35.230  
G27  24742549.989                       -3940.817          41.352    24742570.975                       -2942.916          28.990  
G14  23281990.513                        -531.374          38.259    23282011.499                        -395.293          40.862  
E18                                                                  17793222.009                         324.100          34.753    17793240.896                         242.678          31.112  
E03                                                                  25209982.492                           1.642          42.220    25210002.578                           1.684          20.384  
E21                                                                                                                                  26784106.349                       -1934.076          35.072  
E23                                                                  26224801.248                        -319.603          35.533    26224816.837                        -238.177          38.543  
E08                                                                  25739023.845                        2573.289          44.215    25739035.536                        1921.539          31.395  
E26                                                                  26216577.641                        2412.594          34.141    26216593.830                        1801.230          34.608  
E13                                                                  23318145.184                         405.827          39.374    23318161.673                         303.573          31.446  
E15                                                                  25055685.310                       -2005.646          42.224    25055695.803                       -1497.470          23.993  
C32  24758834.416                        3280.817          41.416                                                                    24758853.303                        2472.681          26.874  
C33  24017805.619                       -2358.762          45.616                                                                    24017837.997                       -1776.983          32.948  
C41  22232161.395                         613.327          42.354                                                                    22232184.779                         462.435          29.652  
C27  21574213.783                        -859.096          43.175                                                                    21574220.078                        -647.280          28.415  
C28  24037819.764                       -2906.877          45.053                                                                    24037833.254                       -2189.403          24.028  
C13  40137664.673                       -1078.168          43.556                                                                                                                                  
C14  25906083.492                       -3203.562          43.415                                                                                                                                  
C30                                                                                                                                  22913893.042                        1587.144          34.486  
> 2025  3 26 17 18 36.0002759  0 23
G32  22123689.289                          80.943          45.390    22123707.576                          61.204          27.847  
G01  20784193.502                        1698.874          39.196    20784207.592                        1268.406          34.115  
G03  22439894.185                        3331.193          36.172    22439912.472                        2488.522          32.270  
G08  21882249.334                       -2958.908          41.366    21882267.322                       -2209.862          26.590  
G10  23350948.475                       -3032.409          46.156    23350958.668                       -2264.434          35.018  
G27  24743304.866                       -3941.174          41.447    24743319.856                       -2942.490          28.561  
G14  23282088.545                        -532.733          37.865    23282113.128                        -396.190          40.829  
E18                                                                  17793162.350                         322.244          34.166    17793179.438                         240.901          31.105  
E03                                                                                                                                  25210000.780                           2.429          21.467  
E21                                                                                                                                  26784599.208                       -1934.611          34.961  
E23                                                                  26224870.800                        -320.411          35.683    26224876.496                        -238.834          38.500  
E08                                                                  25738527.088                        2572.669          44.144    25738546.275                        1921.231          30.890  
E26                                                                  26216121.357                        2412.012          34.390    26216134.548                        1801.117          34.397  
E13                                                                  23318067.538                         405.476          39.047    23318085.226                         303.333          31.566  
E15                                                                  25056068.145                       -2006.181          42.058    25056078.038                       -1498.723          23.371  
C32  24758205.151                        3279.394          41.429                                                                    24758222.539                        2472.386          26.571  
C33  24018260.704                       -2359.939          45.482                                                                    24018291.283                       -1777.753          32.771  
C41  22232043.576                         612.823          42.267                                                                    22232067.560                         461.832          29.981  
C27  21574379.568                        -860.934          43.026                                                                    21574384.364                        -648.766          28.441  
C28  24038375.879                       -2907.076          44.803                                                                    24038391.768                       -2191.635          24.273  
C13  40137872.429                       -1079.396          43.333                                                                                                                                  
C14  25906698.666                       -3203.661          43.465                                                                                                                                  
C30                                                                                                                                  22913488.622                        1586.660          34.187  
> 2025  3 26 17 18 37.0002760  0 23
G32  22123676.997                          79.291          45.760    22123692.886                          59.738          27.635  
G01  20783866.728                        1696.210          39.446    20783884.716                        1268.049          34.110  
G03  22439258.924                        3332.557          35.681    22439278.411                        2488.751          32.736  
G08  21882816.541                       -2959.035          41.723    21882830.032                       -2210.323          26.706  
G10  23351524.376                       -3033.108          46.292    23351536.068                       -2264.825          34.983  
G27  24744053.748                       -3942.265          41.472    24744069.937                       -2942.643          28.173  
G14  23282192.573                        -529.844          37.089    23282214.159                        -396.739          40.358  
E18                                                                  17793102.691                         320.355          34.717    17793117.981                         238.349          31.209  
E03                                                                  25209982.492                           0.033          42.146    25209999.880                           0.776          21.286  
E21                                                                  26785078.276                       -2590.966          30.979    26785092.666                       -1934.687          34.682  
E23                                                                  26224917.268                        -321.349          35.617    26224937.953                        -239.501          38.260  
E08                                                                  25738042.024                        2572.083          44.035    25738057.314                        1921.135          30.942  
E26                                                                  26215663.874                        2411.335          34.638    26215676.165                        1800.938          34.605  
E13                                                                  23317988.992                         404.509          39.256    23318007.579                         302.613          31.636  
E15                                                                  25056444.984                       -2006.815          41.842    25056460.274                       -1498.373          23.077  
C32  24757574.688                        3279.491          41.281                                                                    24757592.375                        2471.917          26.495  
C33  24018709.793                       -2360.420          45.218                                                                    24018744.569                       -1778.348          32.881  
C41  22231926.657                         610.903          42.133                                                                    22231950.341                         461.696          30.052  
C27  21574544.454                        -861.301          43.143                                                                    21574550.450                        -648.677          27.657  
C28  24038935.591                       -2909.070          44.777                                                                    24038950.581                       -2191.172          24.703  
C13  40138079.886                       -1080.815          43.407                                                                                                                                  
C30                                                                                                                                  22913084.801                        1585.862          33.939  
C14  25907313.840                       -3204.417          43.385                                                                                                                                  
> 2025  3 26 17 18 38.0002761  0 23
G32  22123660.509                          79.867          45.927    22123678.196                          59.091          27.072  
G01  20783547.749                        1695.682          39.654    20783561.840                        1266.972          33.547  
G03  22438624.563                        3328.390          36.495    22438644.949                        2487.487          32.419  
G08  21883376.554                       -2961.455          41.672    21883393.942                       -2210.750          26.667  
G10  23352099.978                       -3033.650          46.521    23352113.468                       -2265.339          34.972  
G27  24744805.028                       -3943.148          42.216    24744819.118                       -2943.929          28.128  
G14  23282287.008                        -531.358          36.759    23282315.189                        -398.087          40.676  
E18                                                                  17793042.733                         318.492          35.296    17793058.022                         238.175          30.871  
E03                                                                  25209984.291                          -0.795          42.106    25209998.981                          -0.005          21.062  
E21                                                                                                                                  26785584.925                       -1935.418          35.017  
E23                                                                  26224982.323                        -322.265          35.793    26224998.811                        -240.191          38.343  
E08                                                                  25737551.564                        2571.287          44.125    25737568.052                        1919.442          31.136  
E26                                                                  26215205.191                        2410.754          35.413    26215216.883                        1800.474          34.590  
E13                                                                  23317914.943                         403.925          39.277    23317931.132                         301.709          31.347  
E15                                                                  25056828.718                       -2007.554          41.723    25056842.209                       -1499.105          23.525  
C32  24756940.926                        3277.966          40.747                                                                    24756963.711                        2470.264          26.323  
C33  24019163.079                       -2360.926          45.111                                                                    24019197.556                       -1779.103          33.070  
C41  22231808.839                         610.268          42.247                                                                    22231832.822                         460.730          29.497  
C27  21574708.440                        -862.002          43.064                                                                    21574715.635                        -650.445          28.164  
C28  24039493.205                       -2908.972          44.748                                                                    24039510.293                       -2190.207          23.831  
C13  40138287.342                       -1080.895          43.501                                                                                                                                  
C14  25907929.614                       -3205.621          42.971                                                                                                                                  
C30                                                                                                                                  22912680.381                        1585.329          33.900  
> 2025  3 26 17 18 39.0002762  0 23
G32  22123650.316                          77.628          46.380    22123662.607                          57.191          27.050  
G01  20783227.271                        1696.713          39.510    20783238.963                        1266.662          33.754  
G03  22437992.601                        3329.473          36.384    22438011.188                        2486.805          32.778  
G08  21883941.962                       -2961.400          41.876    21883959.050                       -2211.155          26.665  
G10  23352678.277                       -3034.217          46.461    23352690.869                       -2265.484          35.191  
G27  24745554.809                       -3941.482          42.268    24745569.499                       -2943.726          27.477  
G14  23282383.841                        -537.150          36.435    23282417.418                        -398.183          40.915  
E18                                                                  17792971.682                         316.430          35.097    17792996.565                         236.281          31.199  
E03                                                                  25209986.989                          -1.846          41.887    25209998.981                          -1.251          20.687  
E21                                                                                                                                  26786078.384                       -1936.078          35.431  
E23                                                                  26225043.180                        -323.324          35.821    26225060.568                        -241.257          38.716  
E08                                                                  25737063.502                        2570.643          44.336    25737078.192                        1919.629          31.191  
E26                                                                  26214748.607                        2410.109          35.313    26214758.201                        1799.874          34.377  
E13                                                                  23317836.398                         403.476          39.357    23317853.786                         301.701          31.514  
E15                                                                  25057210.354                       -2007.803          41.405    25057224.444                       -1499.420          23.613  
C32  24756311.362                        3276.898          40.929                                                                    24756333.547                        2470.320          26.787  
C33  24019615.466                       -2361.112          44.906                                                                    24019650.842                       -1779.222          32.885  
C41  22231694.318                         608.923          42.491                                                                    22231715.004                         459.383          29.337  
C27  21574874.825                        -862.567          43.016                                                                    21574881.420                        -649.917          28.283  
C28  24040052.918                       -2908.264          44.864                                                                    24040067.907                       -2191.751          24.222  
C13  40138494.798                       -1080.271          43.558                                                                                                                                  
C14  25908544.788                       -3205.877          43.145                                                                                                                                  
C30                                                                                                                                  22912276.261                        1585.322          34.082  
> 2025  3 26 17 18 40.0002763  0 23
G32  22123635.026                          77.051          46.424    22123647.617                          57.430          27.105  
G01  20782902.896                        1697.172          39.425    20782916.986                        1266.392          33.924  
G03  22437360.339                        3329.843          37.302    22437377.727                        2486.755          32.596  
G08  21884504.972                       -2961.481          41.678    21884522.660                       -2212.862          27.111  
G10  23353258.975                       -3034.432          46.856    23353268.569                       -2265.890          35.387  
G27  24746306.988                       -3941.751          42.344    24746320.479                       -2944.238          28.197  
G14  23282482.773                        -534.927          36.318    23282518.748                        -399.356          40.620  
E18                                                                  17792918.019                         314.296          35.013    17792937.206                         235.608          31.470  
E03                                                                  25209987.289                          -2.651          42.085    25210002.578                          -0.944          19.384  
E21                                                                                                                                  26786572.142                       -1936.168          35.046  
E23                                                                  26225103.139                        -324.381          35.765    26225122.625                        -241.423          38.620  
E08                                                                  25736573.641                        2569.741          44.273    25736589.230                        1919.562          30.779  
E26                                                                  26214289.925                        2409.435          35.161    26214299.818                        1799.890          34.527  
E13                                                                  23317761.749                         402.758          39.573    23317777.339                         300.811          32.062  
E15                                                                  25057587.493                       -2007.963          41.270    25057606.680                       -1498.975          22.703  
C32  24755684.496                        3278.659          40.961                                                                    24755703.083                        2471.584          26.297  
C33  24020066.954                       -2361.873          44.681                                                                    24020104.728                       -1779.569          33.000  
C41  22231575.001                         608.887          42.317                                                                    22231598.085                         459.550          29.712  
C27  21575040.910                        -862.408          43.150                                                                    21575048.705                        -650.706          27.669  
C28  24040613.530                       -2909.483          44.811                                                                    24040625.521                       -2192.223          23.809  
C13  40138701.655                       -1081.407          43.734                                                                                                                                  
C14  25909160.861                       -3206.144          43.243                                                                                                                                  
C30                                                                                                                                  22911872.141                        1584.887          34.278  
> 2025  3 26 17 18 41.0002764  0 23
G32  22123616.439                          76.035          46.163    22123633.827                          57.470          26.845  
G01  20782580.019                        1696.856          39.444    20782594.409                        1265.826          34.516  
G03  22436725.678                        3328.713          37.317    22436744.565                        2486.252          32.391  
G08  21885067.083                       -2961.690          41.231    21885086.270                       -2211.648          27.128  
G10  23353836.076                       -3034.370          47.095    23353845.969                       -2266.116          35.072  
G27  24747058.268                       -3942.626          42.147    24747069.660                       -2944.696          27.667  
G14  23282590.998                        -534.381          36.731    23282621.876                        -399.607          40.819  
E18                                                                  17792857.761                         312.276          34.792    17792877.847                         233.636          31.474  
E03                                                                  25209989.987                          -3.392          42.051    25210001.979                          -0.538          19.048  
E21                                                                                                                                  26787065.600                       -1936.667          34.854  
E23                                                                  26225162.798                        -325.281          35.147    26225184.682                        -242.015          38.533  
E08                                                                  25736084.080                        2569.163          44.035    25736100.568                        1919.016          31.262  
E26                                                                  26213838.437                        2408.983          34.931    26213841.735                        1799.534          34.251  
E13                                                                  23317687.101                         402.019          39.124    23317700.292                         300.537          31.368  
E15                                                                  25057971.527                       -2008.650          41.028    25057989.515                       -1500.281          23.493  
C32  24755056.131                        3277.659          40.839                                                                    24755073.219                        2470.039          25.978  
C33  24020521.439                       -2363.546          44.428                                                                    24020558.314                       -1780.358          33.025  
C41  22231458.981                         607.281          42.243                                                                    22231481.466                         458.799          29.986  
C27  21575207.295                        -864.175          42.553                                                                    21575213.890                        -651.117          28.207  
C28  24041170.844                       -2910.354          44.851                                                                    24041185.534                       -2193.043          23.930  
C13  40138907.612                       -1081.086          43.462                                                                                                                                  
C14  25909776.335                       -3206.337          42.984                                                                                                                                  
C30  22911454.530                        2101.320          39.343                                                                    22911468.620                        1584.047          34.051  
> 2025  3 26 17 18 42.0002765  0 23
G32  22123603.848                          75.508          46.192    22123619.737                          56.563          27.418  
G01  20782252.646                        1693.654          39.010    20782271.533                        1265.490          34.252  
G03  22436091.017                        3327.487          37.413    22436110.804                        2485.851          32.649  
G08  21885635.490                       -2963.204          41.553    21885649.280                       -2213.606          26.604  
G10  23354414.675                       -3035.926          47.102    23354424.269                       -2266.914          34.907  
G27  24747808.049                       -3942.882          41.725    24747820.640                       -2944.150          27.679  
G14  23282719.908                        -538.272          37.735    23282723.506                        -400.412          40.662  
E18                                                                  17792797.203                         310.361          34.144    17792818.788                         232.392          31.061  
E03                                                                  25209989.388                          -4.357          41.947    25210002.878                          -1.301          18.892  
E21                                                                                                                                  26787559.658                       -1937.129          34.830  
E23                                                                  26225222.456                        -326.177          35.032    26225246.440                        -242.705          38.541  
E08                                                                  25735593.919                        2568.859          44.053    25735611.607                        1918.289          31.539  
E26                                                                  26213374.658                        2408.517          34.678    26213383.652                        1799.166          34.046  
E13                                                                  23317610.354                         401.766          38.923    23317624.445                         300.341          31.316  
E15                                                                  25058355.561                       -2009.306          40.916    25058372.050                       -1500.139          24.072  
C32  24754428.366                        3277.260          40.935                                                                    24754445.454                        2468.874          26.024  
C33  24020976.224                       -2364.117          44.498                                                                    24021012.499                       -1781.140          32.968  
C41  22231342.962                         606.962          42.224                                                                    22231364.547                         458.140          29.695  
C27  21575372.181                        -866.401          42.564                                                                    21575379.376                        -650.346          28.934  
C28  24041729.057                       -2910.872          44.591                                                                    24041743.447                       -2193.056          23.163  
C13  40139114.769                       -1081.484          42.933                                                                                                                                  
C14  25910392.708                       -3208.415          42.459                                                                                                                                  
C30  22911052.209                        2101.929          39.108                                                                    22911065.699                        1583.634          34.325  
> 2025  3 26 17 18 43.0002766  0 23
G32  22123587.659                          73.997          46.261    22123605.047                          55.763          26.770  
G01  20781931.268                        1691.954          39.209    20781949.256                        1264.451          34.002  
G03  22435456.357                        3327.047          37.094    22435477.642                        2485.154          32.693  
G08  21886197.900                       -2964.962          41.830    21886213.490                       -2214.262          26.651  
G10  23354992.675                       -3036.997          47.126    23355001.669                       -2267.122          35.005  
G27  24748556.031                       -3943.741          41.668    24748571.620                       -2945.009          27.937  
G14                                                                  23282826.335                        -401.678          40.770  
E18                                                                  17792737.844                         308.618          34.386    17792760.029                         230.791          30.989  
E03                                                                  25209985.490                          -5.363          41.798    25210001.379                          -3.671          20.216  
E21                                                                                                                                  26788053.117                       -1937.984          34.923  
E23                                                                  26225283.314                        -327.003          35.208    26225309.096                        -243.556          38.523  
E08                                                                  25735106.157                        2568.190          43.905    25735122.945                        1918.219          31.169  
E26                                                                  26212917.475                        2408.087          34.732    26212924.970                        1798.625          34.383  
E13                                                                  23317533.008                         401.255          38.627    23317548.897                         299.706          31.032  
E15                                                                  25058731.501                       -2010.047          40.746    25058754.585                       -1501.131          23.023  
C32  24753799.401                        3277.045          41.334                                                                    24753816.190                        2468.619          26.817  
C33  24021426.213                       -2364.309          44.411                                                                    24021466.685                       -1781.433          32.932  
C41  22231226.342                         605.164          42.418                                                                    22231249.126                         456.484          29.433  
C27  21575537.666                        -868.233          42.867                                                                    21575545.760                        -653.195          28.602  
C28  24042285.472                       -2912.120          44.771                                                                    24042301.661                       -2194.068          24.275  
C13  40139321.626                       -1081.891          43.280                                                                                                                                  
C30                                                                                                                                  22910663.078                        1582.771          34.053  
C14  25911006.983                       -3208.753          42.406                                                                                                                                  
> 2025  3 26 17 18 44.0002767  0 23
G32  22123575.967                          72.628          46.476    22123591.556                          53.629          27.658  
G01  20781612.589                        1692.489          39.088    20781627.279                        1264.209          34.076  
G03  22434815.101                        3329.028          36.196    22434845.080                        2484.743          32.760  
G08  21886765.108                       -2967.177          42.099    21886778.898                       -2213.368          27.222  
G10  23355571.574                       -3036.536          47.566    23355579.669                       -2267.693          34.938  
G27  24749304.613                       -3943.913          41.561    24749322.301                       -2944.425          27.582  
G14                                                                  23282928.564                        -402.413          40.845  
E18                                                                                                                                  17792701.869                         229.565          30.909  
E03                                                                  25209987.889                          -6.364          41.280    25210002.279                          -3.923          20.511  
E21                                                                                                                                  26788547.175                       -1938.174          35.077  
E23                                                                  26225345.671                        -327.960          34.822    26225370.854                        -244.343          38.764  
E08                                                                  25734618.394                        2567.171          43.984    25734633.984                        1917.388          31.398  
E26                                                                  26212460.291                        2407.718          34.310    26212466.887                        1798.409          34.712  
E13                                                                  23317455.961                         400.348          38.152    23317471.850                         298.662          31.174  
E15                                                                  25059117.334                       -2010.664          40.893    25059137.120                       -1500.822          23.884  
C32  24753169.238                        3273.728          41.287                                                                    24753187.225                        2468.983          27.478  
C33  24021883.996                       -2365.564          44.404                                                                    24021920.870                       -1782.032          32.863  
C41  22231111.522                         605.078          42.241                                                                    22231132.807                         456.331          29.826  
C27  21575703.751                        -867.261          42.519                                                                    21575712.445                        -652.728          28.140  
C28  24042845.784                       -2912.364          44.568                                                                    24042859.874                       -2193.894          23.197  
C13  40139527.883                       -1081.914          42.855                                                                                                                                  
C30                                                                                                                                  22910259.258                        1582.675          34.194  
C14  25911623.956                       -3209.132          42.339                                                                                                                                  
