     3.04           OBSERVATION DATA    M: Mixed            RINEX VERSION / TYPE
Geo++ RINEX Logger  Geo++               20250401 151651 UTC PGM / RUN BY / DATE
************************************************************COMMENT
This file was generated by the Geo++ RINEX Logger App       COMMENT
for Android devices (Version 2.1.8). If you encounter       COMMENT
any issues, please send an email to android@geopp.de        COMMENT
Filtering Mode: BEST                                        COMMENT
************************************************************COMMENT
Hardware:       Broadcom, BCM4776, GLL ver. 154.20.24 616640COMMENT
Geo++                                                       MARKER NAME
GEODETIC                                                    MARKER TYPE
Geo++               Geo++                                   OBSERVER / AGENCY
NA                  NA                  NA                  REC # / TYPE / VERS
NA                  NA                                      ANT # / TYPE
  3741276.7571   668808.4706  5105006.5895                  APPROX POSITION XYZ
        0.0000        0.0000        0.0000                  ANTENNA: DELTA H/E/N
G    8 C1C L1C D1C S1C C5Q L5Q D5Q S5Q                      SYS / # / OBS TYPES
R    4 C1C L1C D1C S1C                                      SYS / # / OBS TYPES
E   12 C1B L1B D1B S1B C1C L1C D1C S1C C5Q L5Q D5Q S5Q      SYS / # / OBS TYPES
C   12 C2I L2I D2I S2I C1D L1D D1D S1D C5P L5P D5P S5P      SYS / # / OBS TYPES
J    8 C1C L1C D1C S1C C5Q L5Q D5Q S5Q                      SYS / # / OBS TYPES
  2025     4     1    15    17    9.9996946     GPS         TIME OF FIRST OBS
 24 R01  1 R02 -4 R03  5 R04  6 R05  1 R06 -4 R07  5 R08  6 GLONASS SLOT / FRQ #
    R09 -2 R10 -7 R11  0 R12 -1 R13 -2 R14 -7 R15  0 R16 -1 GLONASS SLOT / FRQ #
    R17  4 R18 -3 R19  3 R20  2 R21  4 R22 -3 R23  3 R24  2 GLONASS SLOT / FRQ #
G L1C                                                       SYS / PHASE SHIFT
G L5Q -0.25000                                              SYS / PHASE SHIFT
R L1C                                                       SYS / PHASE SHIFT
E L1B                                                       SYS / PHASE SHIFT
E L1C +0.50000                                              SYS / PHASE SHIFT
E L5Q -0.25000                                              SYS / PHASE SHIFT
C L2I                                                       SYS / PHASE SHIFT
J L1C                                                       SYS / PHASE SHIFT
J L5Q -0.25000                                              SYS / PHASE SHIFT
 C1C    0.000 C1P    0.000 C2C    0.000 C2P    0.000        GLONASS COD/PHS/BIS
                                                            END OF HEADER
> 2025  4  1 15 17  9.9996946  0 23
G32  24032593.782   126292132.6451       3233.819          36.203    24032620.463                        2415.345          20.028  
G01  23652200.322   124293150.7001       3492.072          37.748    23652215.612    92816373.8351       2608.765          27.093  
G02  21646048.253   113750751.2631       2153.820          45.027                                                                  
G23  23085605.168   121315673.4811      -2839.742          35.633    23085621.657    90592937.7431      -2120.504          25.405  
G08  20245875.972   106392795.9991        476.580          46.183    20245888.563    79449214.5191        356.291          28.508  
G10  21069664.875   110721836.0691       -463.048          48.553    21069681.063    82681953.8841       -345.451          30.363  
G27  21031249.769   110519962.9491      -2093.983          44.330    21031261.461    82531187.4321      -1563.769          27.065  
E33                                                                  25990843.513   136582803.6491       2615.257          38.366    25990861.501   101993723.1641       1953.094          25.272  
E03                                                                                                                                  27626499.772                        -805.258          17.214  
E07                                                                  27437177.537   144183340.2331       3203.620          32.980    27437206.317                        2393.272          19.024  
E23                                                                  24958366.382   131157100.2471      -1650.220          42.663    24958384.070    97942059.6811      -1231.987          28.100  
E08                                                                                                                                  26358945.182   103438161.9951       1070.560          24.295  
E26                                                                  23333883.089   122620383.2281        658.604          39.432    23333899.278    91567232.0541        491.142          23.857  
E13                                                                  24952987.206   131128832.4281      -1764.860          41.587    24953006.093    97920955.7331      -1317.480          26.226  
E31                                                                  25578057.179   134413597.4361       1162.283          34.051    25578079.664   100373878.4161        868.591          29.810  
C32  24243722.320   126243423.4671       3301.095          45.294                                                                    24243739.109    95137639.6041       2494.006          23.191  
C33                                                                                                                                  25557168.540                       -1771.169          15.404  
C36  25518184.129   132879880.4281      -2290.208          32.438                                                                    25518214.108   100138952.7891      -1725.610          24.130  
C41  23094163.044   120257366.9821        311.934          44.797                                                                    23094187.627    90626552.2001        235.276          28.771  
C27  22387932.057   116579836.7511      -1621.917          43.294                                                                    22387945.248    87855105.9481      -1223.129          28.860  
C45  25339599.860                        -209.608          33.154                                                                    25339604.657    99438050.9601       -157.168          27.706  
C30  21770874.637   113366656.6101       1270.948          44.712                                                                    21770890.226    85433648.9021        958.753          26.723  
R21  20457173.893   109470469.7791      -2022.641          43.541  
> 2025  4  1 15 17 10.9996948  0 23
G32                                                                  24032062.549                        2178.803          21.027  
G01  23651589.645   124289972.941        3178.107          38.718    23651610.930    92814000.947        2373.586          27.138  
G02  21645696.296   113748912.036        1839.182          45.064                                                                  
G23  23086198.457   121318828.753       -3155.070          33.488    23086222.441    90595293.826       -2355.555          23.994  
G08  20245846.292   106392634.092         162.068          45.919    20245857.684    79449093.721         120.916          27.441  
G10  21069815.970   110722613.961        -778.123          48.009    21069829.461    82682534.566        -580.508          29.503  
G27  21031706.652   110522372.110       -2409.097          46.668    21031719.544    82532986.481       -1799.022          25.730  
E33                                                                  25990405.816   136580502.942        2300.852          37.563    25990422.905   101992005.146        1718.385          26.287  
E03                                                                                                                                  27626766.587                       -1040.577          17.761  
E23                                                                  24958738.725   131159064.921       -1964.441          42.134    24958758.211    97943527.016       -1467.936          29.462  
E07                                                                  27436629.217   144180451.820        2888.945          33.432                                                                  
E08                                                                                                                                  26358732.030   103437326.262         835.252          24.660  
E26                                                                  23333815.636   122620038.728         344.493          39.695    23333831.525    91566974.824         257.025          26.010  
E13                                                                  24953383.232   131130912.313       -2080.041          41.727    24953403.019    97922508.990       -1553.938          26.761  
E31                                                                  25577893.493                         848.269          32.656    25577918.975   100373245.262         633.099          31.832  
C32  24243149.117   126240434.333        2989.425          44.110                                                                    24243162.008                        2259.520          19.774  
C33                                                                                                                                  25557685.083                       -2005.973          11.000  
C36  25518685.981                       -2600.463          33.403                                                                    25518714.162   100140913.617       -1960.819          24.485  
C41  23094163.943   120257367.320          -0.368          45.388                                                                    23094186.727    90626552.383          -0.879          28.305  
C27  22388303.200   116581770.511       -1933.551          41.428                                                                    22388317.290    87856563.116       -1457.563          29.892  
C45  25339696.993                        -521.772          30.374                                                                    25339706.286    99438443.573        -393.136          29.690  
C30  21770692.064   113365697.120         959.443          45.876                                                                    21770705.854    85432925.890         723.787          27.365  
R21  20457610.991   109472813.344       -2343.797          43.739  
> 2025  4  1 15 17 11.9996950  0 23
G32  24031488.147   126286296.4401       2917.693          37.515    24031507.633                        2178.641          21.482  
G01  23650985.563   124286795.600        3177.555          39.017    23651006.549    92811628.389        2371.928          26.808  
G02  21645349.436   113747073.310        1838.753          43.666                                                                  
G23  23086799.541   121321984.353       -3155.681          40.494    23086822.625    90597650.216       -2356.488          27.128  
G08  20245812.416   106392473.041         160.837          45.220    20245826.206    79448973.386         120.482          27.396  
G10  21069965.267   110723392.613        -778.922          48.592    21069977.558    82683116.216        -582.631          29.224  
G27  21032164.436   110524781.950       -2410.082          46.861    21032177.626    82534786.031       -1799.891          26.567  
E33                                                                  25989966.021   136578202.514        2300.067          38.396    25989986.407   101990287.345        1717.637          25.505  
E03                                                                                                                                  27627032.204                       -1042.333          21.449  
E07                                                                  27436080.297   144177563.829        2888.282          32.607    27436103.381                        2154.851          18.433  
E23                                                                  24959112.866   131161030.331       -1965.700          40.255    24959131.753    97944994.516       -1467.669          29.973  
E08                                                                  26358499.091   138514847.5681       1118.450          37.344    26358519.177   103436491.235         835.179          21.489  
E26                                                                  23333748.182   122619694.752         343.870          38.266    23333765.570    91566717.922         256.417          26.182  
E13                                                                  24953779.858   131132992.538       -2080.349          41.922    24953798.445    97924062.393       -1553.751          25.501  
E31                                                                  25577733.404   134411902.2951        846.804          33.780    25577757.087   100372612.606         632.408          32.569  
C32  24242572.916   126237445.761        2988.613          44.571                                                                    24242588.805                        2261.515          19.176  
C33                                                                                                                                  25558190.833                       -2008.469          18.841  
C36  25519183.937   132885085.0201      -2602.842          33.016                                                                    25519214.216   100142874.843       -1961.143          23.556  
C41  23094165.142   120257368.464          -1.427          45.224                                                                    23094188.226    90626553.106          -0.348          27.052  
C27  22388673.444   116583704.858       -1934.499          42.161                                                                    22388687.834    87858020.751       -1457.578          30.123  
C45  25339794.126                        -519.654          27.914                                                                    25339806.717    99438836.677        -393.303          28.017  
C30  21770505.892   113364738.218         958.851          45.538                                                                    21770522.381    85432203.381         722.094          26.475  
R21  20458054.384   109475157.470       -2344.396          44.169  
> 2025  4  1 15 17 12.9996951  0 23
G32  24030905.650   126283221.413        3074.977          38.530    24030924.237                        2296.182          21.055  
G01  23650358.997   124283461.023        3334.621          36.566    23650372.188    92809138.206        2490.308          27.589  
G02  21644966.302   113745077.544        1995.518          42.922                                                                  
G23  23087375.143   121324983.305       -2998.571          42.245    23087393.130    90599889.443       -2240.037          28.340  
G08  20245752.457   106392155.223         317.659          44.621    20245765.348    79448736.049         237.047          28.654  
G10  21070082.485   110724014.487        -622.213          49.169    21070095.077    82683580.521        -464.158          27.121  
G27  21032591.940   110527034.877       -2253.069          46.839    21032606.929    82536468.341       -1682.170          29.993  
E33                                                                  25989501.642   136575744.828        2457.662          36.799    25989518.431   101988452.125        1834.824          27.615  
E03                                                                                                                                  27627267.241   108415312.5371       -925.664          23.361  
E07                                                                  27435500.498   144174518.535        3045.521          32.484    27435522.083                        2272.269          16.918  
E23                                                                  24959459.726   131162838.783       -1808.315          39.121    24959474.715    97946344.877       -1350.657          30.738  
E08                                                                  26358257.758   138513572.313        1275.332          35.169    26358276.345   103435538.862         952.648          24.101  
E26                                                                  23333652.548   122619193.765         500.587          38.816    23333671.136    91566343.712         373.789          28.827  
E13                                                                  24954144.705   131134915.507       -1923.116          40.862    24954163.592    97925498.374       -1435.939          26.001  
E31                                                                  25577543.635   134410898.107        1004.173          33.725    25577565.220   100371862.786         749.532          31.711  
C32                                                                                                                                  24241988.920    95130754.1941       2369.444          26.704  
C33                                                                                                                                  25558678.595                       -1892.529          22.301  
C36  25519653.711   132887531.897       -2446.826          32.000                                                                    25519684.590                       -1843.742          22.972  
C41  23094138.161   120257214.203         153.973          45.821                                                                    23094159.146    90626436.804         117.458          26.390  
C27  22389016.706   116585483.528       -1778.810          44.548                                                                    22389029.597    87859361.205       -1340.676          29.134  
C45  25339868.774                        -366.520          31.576                                                                    25339875.969    99439112.653        -275.738          26.324  
C30  21770291.541   113363623.731        1114.343          44.792                                                                    21770308.329    85431363.541         839.481          26.408  
R21  20458456.405   109477341.688       -2184.489          43.946  
> 2025  4  1 15 17 13.9996953  0 23
G32  24030352.233   126280304.413        2917.013          42.108    24030367.823                        2177.297          17.000  
G01                                                                  23649766.307    92806766.010        2371.916          26.873  
G02  21644618.542   113743240.144        1837.889          40.199                                                                  
G23  23087975.627   121328139.916       -3156.704          42.622    23087994.214    90602246.437       -2357.598          26.324  
G08  20245721.878   106391995.926         159.537          45.483    20245736.268    79448617.237         118.842          27.664  
G10  21070229.384   110724794.740        -780.459          49.199    21070243.174    82684163.311        -583.344          25.967  
G27  21033051.521   110529446.208       -2411.545          44.374    21033065.312    82538268.922       -1800.594          29.267  
E33                                                                  25989062.147   136573445.266        2300.558          35.868    25989080.134   101986734.671        1716.968          28.146  
E03                                                                                                                                  27627532.857                       -1043.699          21.492  
E07                                                                  27434948.281   144171631.104        2887.509          36.797    27434969.866                        2157.381          14.679  
E23                                                                  24959832.667   131164805.491       -1966.705          39.909    24959849.156    97947813.565       -1468.943          29.580  
E08                                                                                                                                  26358064.092   103434704.816         833.631          25.326  
E26                                                                  23333590.192   122618850.858         342.979          40.443    23333605.781    91566087.701         256.135          27.125  
E13                                                                  24954544.628   131136996.426       -2081.095          40.664    24954559.618    97927052.367       -1553.988          27.402  
E31                                                                  25577386.844   134410052.439         845.987          33.014    25577404.831   100371231.178         631.022          30.170  
C32  24241397.130   126231314.0261       2987.636          44.182                                                                    24241413.619    95128502.811        2251.913          27.837  
C33  25559150.468   133093203.5991      -2670.040          33.174                                                                    25559191.540                       -2009.347          19.357  
C36  25520155.264                       -2602.941          31.798                                                                    25520184.944   100146680.8851      -1962.276          21.239  
C41  23094137.861   120257216.895          -2.984          45.592                                                                    23094159.446    90626439.165          -1.582          26.554  
C27  22389389.648   116587418.847       -1935.474          47.227                                                                    22389401.340    87860819.939       -1458.386          27.347  
C45  25339966.206   131951877.9081       -523.209          34.870                                                                    25339976.100    99439507.032        -394.330          26.221  
C30  21770107.468   113362666.164         957.754          44.743                                                                    21770123.357    85430644.231         713.900          24.048  
R21  20458897.400   109479686.984       -2345.533          43.971  
> 2025  4  1 15 17 14.9996954  0 23
G32  24029765.539   126277230.108        3074.340          43.069    24029784.127                        2296.977          15.539  
G01                                                                  23649133.745    92804276.369        2489.356          27.360  
G02  21644241.703   113741245.264        1994.549          37.910                                                                  
G23  23088547.631   121331139.390       -2999.458          43.118    23088565.319    90604486.307       -2240.084          26.847  
G08  20245664.018   106391679.518         316.197          45.647    20245675.411    79448381.002         235.787          25.746  
G10  21070349.301   110725418.036        -623.606          49.017    21070363.691                        -466.206          22.017  
G27  21033481.124   110531700.299       -2254.325          43.971    21033494.615    82539952.257       -1683.636          25.686  
E33                                                                                                                                  25988612.458   101984899.859        1834.302          27.155  
E03                                                                  27627743.911   145184773.9611      -1240.003          32.868    27627769.693                        -925.730          18.299  
E07                                                                  27434372.679   144168586.240        3044.858          39.194    27434390.367                        2275.026          14.602  
E23                                                                  24960177.429   131166614.899       -1809.437          39.891    24960193.018    97949164.686       -1350.850          25.938  
E08                                                                                                                                  26357821.860   103433753.399         951.400          24.904  
E26                                                                  23333496.357   122618350.630         500.015          40.645    23333510.147    91565714.144         373.241          24.870  
E13                                                                  24954908.276   131138920.066       -1923.787          40.944    24954927.763                       -1436.776          24.827  
E31                                                                  25577196.775   134409049.459        1002.860          35.375    25577213.863   100370482.299         748.224          28.220  
C32  24240793.048   126228170.632        3143.249          41.107                                                                    24240810.436                        2370.353          25.122  
C33  25559637.031   133095716.714       -2513.487          31.582                                                                    25559674.206                       -1893.105          18.740  
C36  25520625.938   132892583.2091      -2447.849          33.845                                                                    25520655.018   100148525.393       -1844.608          22.456  
C41  23094107.882   120257064.153         152.426          45.735                                                                    23094130.366    90626324.391         113.692          24.759  
C27  22389731.112   116589198.409       -1779.773          47.482                                                                    22389742.504                       -1341.503          22.438  
C45  25340037.857   131952246.072        -367.925          37.109                                                                    25340046.551                        -276.682          24.817  
C30  21769897.314   113361552.648        1113.431          45.602                                                                    21769907.806                         838.864          21.222  
R21  20459309.015   109481872.372       -2185.584          44.619  
> 2025  4  1 15 17 15.9996956  0 23
G32  24029210.923   126274313.924        2915.764          43.100    24029229.511                        2178.302          18.913  
G01                                                                  23648527.265    92801904.690        2371.731          26.835  
G02  21643890.047   113739408.535        1836.311          38.584                                                                  
G23  23089147.216   121334297.021       -3158.050          43.225    23089165.204    90606844.413       -2359.539          26.012  
G08  20245634.339   106391521.564         157.494          45.815    20245644.232    79448263.035         117.243          26.025  
G10  21070497.098   110726199.780        -782.374          48.991    21070512.088                        -583.597          18.924  
G27  21033940.106   110534112.787       -2413.164          43.282    21033954.496    82541753.815       -1801.923          23.304  
E33                                                                                                                                  25988175.660   101983182.948        1716.761          27.260  
E03                                                                  27628020.320   145186172.321       -1398.630          32.240    27628035.309                       -1043.397          17.790  
E23                                                                  24960550.670   131168582.607       -1968.370          39.687    24960568.358    97950634.098       -1469.659          24.227  
E07                                                                  27433821.960   144165699.281        2886.674          39.149                                                                  
E08                                                                                                                                  26357609.906   103432920.345         832.681          24.049  
E26                                                                  23333430.702   122618008.511         341.820          41.649    23333445.991    91565458.617         256.034          25.977  
E13                                                                  24955305.501   131141001.710       -2082.164          40.670    24955322.889    97930043.2831      -1554.393          23.606  
E31                                                                  25577034.887   134408204.948         843.886          35.160    25577052.575   100369851.563         629.942          27.794  
C32  24240220.744   126225183.943        2986.280          39.716                                                                    24240236.034    95123883.1061       2251.369          24.283  
C33  25560147.578   133098386.562       -2669.630          31.460                                                                    25560188.350                       -2011.122          17.236  
C36  25521127.491   132895187.565       -2604.823          34.759                                                                    25521154.772   100150488.131       -1962.951          21.704  
C41  23094107.882   120257068.410          -5.028          45.729                                                                    23094132.165                          -6.138          22.292  
C27  22390100.156   116591134.686       -1936.939          47.087                                                                    22390114.546                       -1457.864          19.858  
C45  25340137.988   131952770.672        -525.176          37.727                                                                    25340146.981    99440179.3091       -394.608          25.471  
C30  21769715.040   113360595.967         956.096          46.120                                                                    21769724.333                         721.191          21.995  
R21  20459747.312   109484218.899       -2347.108          44.650  
> 2025  4  1 15 17 16.9996958  0 23
G32  24028653.909   126271398.121        2915.448          41.460    24028672.796                        2180.263          17.806  
G01                                                                  23647924.982    92799533.277        2372.218          27.253  
G02  21643536.591   113737571.989        1836.664          38.857                                                                  
G23  23089748.899   121337455.131       -3158.053          44.805    23089765.688    90609202.609       -2358.186          26.583  
G08  20245607.358   106391364.172         157.713          43.761    20245614.852    79448145.440         117.055          28.909  
G10                                                                  21070658.687                        -584.087          29.573  
G27  21034399.988   110536525.808       -2413.326          45.106    21034412.579    82543555.792       -1802.174          31.665  
E33                                                                                                                                  25987738.863   101981466.367        1717.510          30.386  
E03                                                                  27628273.644   145187571.392       -1398.744          32.839    27628300.326                       -1044.010          19.442  
E23                                                                  24960927.210   131170550.668       -1968.434          40.121    24960942.799    97952103.641       -1469.326          29.210  
E07                                                                  27433275.439   144162812.608        2886.606          37.165                                                                  
E08                                                                                                                                  26357397.354   103432087.562         832.457          25.459  
E26                                                                  23333365.947   122617666.704         342.005          39.940    23333380.937    91565203.465         255.156          30.152  
E13                                                                  24955703.326   131143083.704       -2081.704          40.424    24955718.915    97931598.018       -1554.926          28.802  
E31                                                                  25576873.899   134407360.806         844.497          34.438    25576893.385   100369221.295         630.125          29.824  
C32  24239646.342   126222197.664        2985.913          43.202                                                                    24239662.531    95121632.706        2249.952          28.354  
C33  25560658.424   133101057.090       -2670.535          34.265                                                                    25560699.496                       -2011.967          21.087  
C36  25521624.847                       -2603.708          31.497                                                                    25521654.826                       -1963.782          18.614  
C41  23094110.880   120257073.461          -5.364          45.083                                                                    23094130.966    90626331.0291         -3.997          30.444  
C27                                                                                                                                  22390485.090                       -1459.161          28.971  
C45  25340238.418   131953295.906        -525.259          35.978                                                                    25340247.712    99440575.375        -396.045          26.130  
C30  21769529.768   113359639.620         956.864          43.824                                                                    21769541.160    85428371.1701        720.415          25.165  
R21  20460187.707   109486566.019       -2347.232          43.964  
> 2025  4  1 15 17 17.9996959  0 22
G32                                                                  24028090.599                        2295.690          25.277  
G01                                                                  23647290.921    92797044.471        2488.235          29.026  
G02  21643161.551   113735578.878        1991.685          42.910                                                                  
G23  23090322.702   121340456.286       -3001.304          42.982    23090336.493    90611443.842       -2241.057          24.301  
G08  20245540.204   106391050.445         312.264          44.939    20245555.793    79447911.026         233.580          29.425  
G10  21070769.010   110727608.0621       -626.373          49.614    21070779.203    82686256.1801       -467.542          28.764  
G27  21034829.590   110538782.137       -2257.112          47.187    21034842.482    82545240.616       -1684.778          32.416  
E33                                                                                                                                  25987271.187   101979632.425        1833.275          30.301  
E03                                                                                                                                  27628536.262   108420307.2211       -927.017          22.960  
E23                                                                  24961269.573   131172362.116       -1813.098          39.373    24961287.860    97953456.285       -1353.025          31.834  
E08                                                                  26357142.230   138507678.6551       1271.756          37.620    26357155.121   103431137.779         949.852          23.929  
E26                                                                  23333273.611   122617168.169         497.131          41.073    23333285.603    91564831.078         371.638          29.438  
E13                                                                  24956068.174   131145008.577       -1924.857          42.222    24956083.463    97933035.387       -1437.236          26.561  
E31                                                                  25576685.929   134406360.129        1000.087          40.013    25576702.417   100368473.946         746.810          27.555  
C32  24239042.560   126219055.891        3141.262          44.875                                                                    24239059.948    95119264.997        2367.494          30.940  
C33  25561141.090   133103572.155       -2514.767          36.394                                                                    25561182.761   100307549.7121      -1896.053          23.569  
C36                                                                                                                                  25522124.601   100154295.7111      -1846.722          24.263  
C41  23094080.900   120256923.266         149.573          46.299                                                                    23094102.186    90626217.730         113.413          27.004  
C27  22390817.859   116594852.7131      -1781.645          47.214                                                                    22390828.652    87866415.8501      -1342.398          30.824  
C45  25340307.370   131953665.928        -370.522          35.571                                                                    25340319.662                        -276.871          21.512  
C30  21769318.115   113358528.003        1110.707          45.518                                                                    21769327.408    85427533.394         836.632          24.373  
R21  20460597.823   109488753.424       -2187.940          44.503  
> 2025  4  1 15 17 18.9996961  0 23
G32  24027519.794   126265410.5741       2915.682          43.292    24027535.084    94289204.2291       2176.052          24.449  
G01  23646663.755   124264090.8511       3174.709          32.803    23646686.839    92794673.619        2370.386          30.423  
G02  21642809.595   113733743.620        1834.839          42.900                                                                  
G23  23090919.889   121343615.552       -3158.919          41.992    23090938.776    90613802.928       -2358.551          23.920  
G08  20245511.424   106390894.621         156.537          44.353    20245527.013    79447794.846         115.983          31.786  
G10  21070915.609   110728392.152        -783.651          50.648    21070928.800    82686841.863        -585.558          27.964  
G27  21035289.172   110541196.547       -2412.944          47.261    21035302.063    82547043.847       -1803.422          33.982  
E33                                                                  25986817.301   136561635.9711       2297.643          39.947    25986834.089   101977916.297        1715.924          30.670  
E03                                                                  27628779.994   145190214.1221      -1400.750          33.155    27628803.078   108421352.866       -1045.488          21.475  
E23                                                                  24961649.110   131174331.352       -1968.551          38.340    24961662.301    97954927.066       -1471.226          33.189  
E07                                                                  27432149.418   144156882.9601       2886.841          39.110                                                                  
E08                                                                  26356927.579   138506565.006        1115.030          37.300    26356942.868   103430306.358         831.332          23.742  
E26                                                                  23333208.256   122616827.270         341.497          39.864    23333220.847    91564576.628         254.651          30.224  
E13                                                                  24956463.600   131147091.389       -2081.913          41.937    24956480.988    97934590.846       -1554.676          26.781  
E31                                                                  25576525.540   134405517.546         843.274          39.095    25576541.729   100367844.977         626.766          25.854  
C32  24238468.457   126216070.735        2985.819          45.745                                                                    24238486.145    95117015.460        2249.691          32.752  
C33  25561653.436   133106243.867       -2672.046          34.967                                                                    25561695.107   100309562.790       -2013.135          22.868  
C36  25522593.776   132902846.5471      -2606.107          30.949                                                                    25522626.154   100156259.587       -1964.638          25.968  
C41  23094082.100   120256929.945          -5.623          46.461                                                                    23094102.486    90626223.060          -5.534          25.426  
C27  22391189.002   116596790.464       -1936.382          46.968                                                                    22391201.294    87867876.345       -1460.339          30.783  
C45  25340410.199   131954192.814        -526.928          36.554                                                                    25340419.792                        -394.689          19.112  
C30  21769136.141   113357572.896         955.174          45.987                                                                    21769145.434    85426813.513         720.934          26.878  
R21  20461036.419   109491101.779       -2347.246          44.879  
> 2025  4  1 15 17 19.9996962  0 23
G32  24026931.601   126262339.316        3071.542          43.815    24026950.488    94286910.680        2293.491          25.520  
G01  23646033.592   124260758.476        3331.223          43.450    23646052.179    92792185.142        2486.585          30.926  
G02  21642430.357   113731751.230        1991.614          44.128                                                                  
G23  23091490.394   121346618.657       -3002.142          44.385    23091508.981    90616045.365       -2242.289          24.672  
G08  20245452.365   106390582.367         311.622          44.249    20245467.355    79447561.711         232.339          31.885  
G10  21071034.926   110729020.002        -627.681          46.563    21071047.817                        -471.841          25.602  
G27  21035719.075   110543454.523       -2257.916          46.056    21035731.666    82548730.677       -1686.202          32.224  
E33                                                                  25986349.625   136559180.449        2454.125          40.867    25986366.713   101976083.770        1832.731          29.322  
E03                                                                  27629020.127   145191458.391       -1243.581          38.206    27629041.413   108422282.153        -929.052          28.652  
E23                                                                  24961986.976   131176143.639       -1813.731          43.102    24962006.762    97956280.372       -1354.162          30.021  
E07                                                                  27431564.223   144153840.406        3043.152          38.983                                                                  
E08                                                                  26356679.950   138505295.661        1270.333          40.007    26356701.235                         947.760          23.744  
E26                                                                  23333109.025   122616329.690         497.244          42.244    23333126.413    91564205.149         371.340          30.034  
E13                                                                  24956829.646   131149017.770       -1925.848          43.592    24956847.034                       -1439.882          25.847  
E31                                                                  25576334.272   134404517.982         998.607          41.129    25576350.761                         745.780          25.110  
C32  24237862.877   126212930.227        3140.146          44.071                                                                    24237882.963                        2366.680          29.304  
C33  25562139.099   133108760.906       -2516.025          42.698                                                                    25562179.272   100311459.697       -1896.311          30.469  
C36  25523065.949   132905296.210       -2450.843          38.148                                                                    25523098.626   100158105.421       -1847.853          26.029  
C41  23094053.619   120256782.008         148.099          44.962                                                                    23094076.104    90626111.449         111.222          27.694  
C27  22391531.965   116598573.278       -1782.320          45.410                                                                    22391542.458                       -1343.412          29.784  
C45                                                                                                                                  25340493.541                        -280.744          25.260  
C30  21768919.391   113356462.274        1110.038          45.378                                                                    21768932.282    85425976.770         836.286          28.293  
R21  20461434.244   109493291.061       -2188.797          44.814  
> 2025  4  1 15 17 20.9996964  0 23
G32  24026372.788   126259425.458        2912.726          46.719    24026397.071    94284734.754        2174.887          26.210  
G01  23645425.612   124257584.611        3173.456          44.349    23645447.797    92789814.841        2370.307          30.180  
G02  21642085.296   113729917.500        1833.165          44.319                                                                  
G23  23092086.981   121349779.137       -3160.542          44.169    23092112.163    90618405.729       -2360.017          30.893  
G08  20245429.281   106390428.730         152.668          41.741    20245438.275    79447446.910         114.686          28.603  
G10  21071182.424   110729805.840        -786.480          45.723    21071196.514                        -587.159          29.621  
G27  21036178.956   110545870.553       -2417.165          45.068    21036192.147    82550534.873       -1804.467          33.076  
E33                                                                  25985915.225   136556883.436        2296.814          40.324    25985929.615   101974368.179        1715.903          27.639  
E03                                                                  27629288.142   145192860.470       -1401.732          38.919    27629307.329   108423329.124       -1046.992          32.032  
E23                                                                  24962363.815   131178114.655       -1971.580          44.192    24962382.702    97957752.202       -1472.602          27.385  
E07                                                                                                                                  27431039.886                        2154.541          21.040  
E08                                                                  26356475.791   138504183.370        1112.014          39.983    26356489.282                         830.585          24.030  
E26                                                                  23333047.867   122615990.308         338.717          40.933    23333061.957    91563951.678         252.614          27.645  
E13                                                                  24957226.572   131151101.528       -2083.980          45.030    24957243.060    97937585.3231      -1556.674          26.951  
E31                                                                  25576172.684   134403677.255         840.763          40.436    25576190.072   100366470.5471        627.318          27.026  
C32  24237288.474   126209946.115        2982.965          44.656                                                                    24237309.760                        2248.691          27.327  
C33  25562652.644   133111434.036       -2672.677          42.744                                                                    25562693.116   100313474.251       -2014.923          32.713  
C36  25523566.603   132907903.209       -2607.383          37.615                                                                    25523598.081                       -1965.898          23.487  
C41  23094057.517   120256790.468          -9.014          46.007                                                                    23094077.303    90626117.763          -6.733          30.773  
C27  22391907.305   116600512.315       -1939.941          44.880                                                                    22391915.699                       -1462.120          29.073  
C45  25340581.980   131955093.0181       -528.953          36.515                                                                    25340593.372    99441925.5261       -398.507          28.031  
C30  21768734.419   113355508.761         953.319          45.063                                                                    21768750.608    85425258.141         718.572          26.414  
R21  20461876.737   109495640.853       -2350.290          44.383  
> 2025  4  1 15 17 21.9996966  0 23
G32  24025822.369   126256512.388        2912.656          47.240    24025841.856    94282559.429        2174.961          27.096  
G01  23644824.529   124254411.045        3172.923          43.434    23644843.715    92787445.120        2369.383          28.368  
G02  21641735.738   113728084.259        1832.690          45.623                                                                  
G23  23092689.264   121352940.347       -3161.485          42.724    23092713.247    90620766.341       -2360.930          32.657  
G08  20245402.899   106390276.066         152.263          42.052    20245408.895    79447332.922         113.314          28.993  
G10  21071332.920   110730592.816        -787.522          47.090    21071346.710                        -587.769          30.911  
G27  21036637.939   110548287.550       -2417.488          44.423    21036651.429    82552339.776       -1804.978          33.292  
E33                                                                  25985477.828   136554586.711        2296.240          40.151    25985491.319   101972653.299        1714.996          25.676  
E03                                                                  27629554.657   145194263.217       -1403.011          38.031    27629574.444   108424376.619       -1048.128          32.779  
E07                                                                  27430465.484   144148070.4651       2884.297          43.498    27430491.266   107643154.1191       2153.595          21.156  
E23                                                                  24962739.455   131180086.280       -1972.100          45.455    24962756.843    97959224.466       -1471.693          26.392  
E08                                                                  26356263.538   138503072.192        1110.549          42.033    26356277.928   103427697.8401        829.602          25.050  
E26                                                                  23332982.512   122615651.598         338.341          40.577    23332996.902    91563698.648         253.195          28.139  
E13                                                                  24957621.998   131153185.829       -2084.803          44.816    24957640.285    97939141.787       -1556.760          26.182  
E31                                                                  25576015.593   134402837.158         839.597          39.226    25576031.482   100365843.178         626.610          27.903  
C32  24236715.571   126206962.868        2982.981          44.105                                                                    24236737.156                        2248.541          22.547  
C33  25563165.289   133114107.888       -2674.123          42.798                                                                    25563206.360   100315489.149       -2015.259          32.466  
C36  25524063.658   132910510.646       -2607.914          35.718                                                                    25524098.135                       -1961.060          21.360  
C41  23094060.515   120256800.010         -10.178          46.427                                                                    23094079.701    90626124.892          -7.420          30.959  
C27  22392279.048   116602452.187       -1940.357          44.396                                                                    22392289.541    87872150.0661      -1462.177          27.768  
C45  25340687.807   131955622.549        -530.310          34.890                                                                    25340697.100    99442324.554        -398.964          28.155  
C30  21768549.147   113354555.906         952.418          44.798                                                                    21768567.734    85424540.200         717.537          26.325  
R21  20462318.032   109497991.568       -2351.191          45.312  
> 2025  4  1 15 17 22.9996967  0 23
G32  24025236.575   126253442.327        3069.466          46.124    24025259.059    94280266.779        2292.305          28.751  
G01  23644188.669   124251080.411        3330.165          42.655    23644210.853    92784957.900        2487.286          27.908  
G02  21641358.299   113726094.074        1989.750          45.297                                                                  
G23  23093259.169   121355944.417       -3004.490          43.111    23093284.652    90623009.612       -2243.344          32.638  
G08  20245341.742   106389966.675         308.756          43.132    20245350.735    79447101.830         230.956          28.902  
G10  21071454.036   110731222.974        -630.665          47.639    21071466.927                        -471.093          31.313  
G27  21037066.342   110550547.723       -2260.983          45.063    21037081.631    82554027.643       -1688.463          32.864  
E33                                                                  25985012.850   136552132.921        2453.347          40.403    25985024.242   101970820.923        1832.404          25.761  
E03                                                                  27629793.892   145195509.067       -1246.514          38.118    27629812.779   108425306.888        -930.428          32.709  
E23                                                                  24963086.315   131181901.121       -1815.322          45.584    24963104.003    97960579.785       -1355.185          28.663  
E07                                                                  27429885.385   144145028.695        3041.297          42.344    27429911.467                        2271.096          17.534  
E08                                                                  26356018.608   138501804.062        1267.568          41.814    26356036.596   103426750.802         946.629          23.897  
E26                                                                  23332888.377   122615155.821         495.308          40.693    23332902.168    91563328.548         369.338          26.521  
E13                                                                  24957989.843   131155112.898       -1927.345          44.979    24958007.231    97940580.822       -1439.332          26.260  
E31                                                                  25575824.925   134401840.265         996.129          39.523    25575841.713   100365098.692         744.470          28.586  
C32  24236109.990   126203824.051        3138.416          42.875                                                                    24236134.573                        2362.308          19.425  
C33  25563649.154   133116626.099       -2518.579          43.194                                                                    25563689.926   100317386.853       -1897.784          33.037  
C36  25524537.630   132912962.581       -2452.072          35.000                                                                    25524568.209   100163882.9441      -1844.203          18.325  
C41  23094030.835   120256654.211         145.147          46.742                                                                    23094050.322    90626015.054         109.413          31.431  
C27  22392622.310   116604236.415       -1784.672          43.308                                                                    22392630.105    87873494.663       -1344.505          27.925  
C45  25340762.755   131955996.791        -375.110          34.624                                                                    25340766.952    99442606.690        -282.747          27.453  
C30  21768337.793   113353447.510        1107.902          44.790                                                                    21768352.783    85423704.923         834.963          27.378  
R21  20462725.450   109500182.376       -2191.235          46.198  
> 2025  4  1 15 17 23.9996969  0 23
G32  24024682.858   126250530.159        2911.960          45.073    24024703.244    94278092.121        2174.840          28.737  
G01  23643581.889   124247907.613        3172.300          42.919    23643606.772    92782588.664        2369.137          27.333  
G02  21641010.540   113724261.870        1831.836          45.426                                                                  
G23  23093861.452   121359106.402       -3162.045          43.100    23093886.335    90625370.927       -2361.416          31.676  
G08  20245313.861   106389815.502         150.596          43.145    20245321.655    79446989.062         111.908          27.053  
G10  21071606.930   110732011.380        -788.794          47.490    21071617.123                        -588.689          31.060  
G27  21037526.523   110552965.992       -2418.699          45.203    21037541.213    82555833.453       -1806.147          31.959  
E33                                                                  25984573.654   136549836.928        2295.474          40.787    25984588.044   101969106.272        1715.081          25.255  
E03                                                                  27630060.107   145196912.956       -1404.131          38.794    27630078.395   108426355.254       -1048.198          32.348  
E23                                                                  24963461.655   131183874.028       -1973.471          45.698    24963478.144    97962053.123       -1473.410          28.599  
E07                                                                  27429334.967   144142144.696        2883.900          40.845    27429362.248                        2153.836          17.816  
E08                                                                  26355806.355   138500694.050        1109.792          41.054    26355825.542   103425921.895         829.048          22.178  
E26                                                                  23332826.021   122614817.975         337.420          40.320    23332837.713    91563076.229         251.852          25.556  
E13                                                                  24958387.068   131157197.819       -2085.182          45.256    24958402.957    97942137.760       -1557.546          26.200  
E31                                                                  25575662.437   134401001.469         838.359          40.840    25575682.224   100364472.376         626.066          27.728  
C32  24235537.686   126200841.755        2982.006          43.283                                                                    24235560.471                        2244.385          18.798  
C33  25564161.199   133119300.894       -2675.066          43.323                                                                    25564203.170   100319402.583       -2015.782          32.979  
C36  25525038.284   132915571.054       -2608.979          35.685                                                                    25525070.961                       -1961.441          17.733  
C41  23094030.236   120256665.219         -11.427          46.709                                                                    23094052.420    90626023.319          -8.354          30.769  
C27  22392993.453   116606177.191       -1940.901          42.180                                                                    22393003.646    87874957.259       -1462.936          28.531  
C45  25340858.988   131956527.764        -531.386          35.677                                                                    25340868.882    99443006.770        -400.190          27.473  
C30  21768153.421   113352495.687         951.329          44.810                                                                    21768172.308    85422987.614         717.317          26.386  
R21  20463161.648   109502534.145       -2352.106          46.139  
> 2025  4  1 15 17 24.9996970  0 23
G32  24024101.261   126247460.995        3068.737          45.240    24024118.349    94275800.222        2291.737          28.190  
G01  23642949.327   124244577.652        3329.563          43.213    23642973.910    92780102.045        2486.445          27.932  
G02  21640634.001   113722272.660        1988.833          45.126                                                                  
G23  23094433.456   121362111.454       -3005.215          42.799    23094457.440    90627614.932       -2244.512          31.255  
G08  20245253.003   106389507.663         307.323          42.623    20245262.297    79446759.087         229.747          24.422  
G10  21071729.245   110732643.095        -632.283          47.718    21071737.640                        -471.294          30.913  
G27  21037954.627   110555227.492       -2262.102          45.248    21037972.315    82557522.172       -1688.779          31.864  
E33                                                                  25984106.577   136547383.761        2452.834          40.608    25984121.867   101967274.358        1832.756          25.497  
E03                                                                  27630299.342   145198160.070       -1247.632          38.683    27630316.130   108427286.537        -931.382          32.239  
E07                                                                  27428756.967   144139103.553        3040.795          40.753    27428783.648                        2271.704          19.967  
E23                                                                  24963804.618   131185689.982       -1816.181          45.685    24963823.804    97963409.171       -1356.171          27.404  
E08                                                                  26355565.022   138499427.237        1266.137          41.131    26355583.909                         946.729          22.232  
E26                                                                  23332731.586   122614323.136         494.244          40.347    23332743.878    91562706.605         369.637          24.327  
E13                                                                  24958752.815   131159125.625       -1928.098          45.094    24958771.102    97943577.307       -1439.967          25.780  
E31                                                                  25575474.467   134400005.871         995.141          41.452    25575493.954   100363728.872         743.205          27.400  
C32  24234936.902   126197703.913        3137.412          43.351                                                                    24234955.190                        2365.734          19.305  
C33  25564646.264   133121820.186       -2519.630          43.226                                                                    25564686.736   100321301.138       -1898.607          33.121  
C36  25525512.555   132918023.875       -2453.361          36.335                                                                    25525544.333                       -1847.408          20.008  
C41  23094004.453   120256520.991         143.759          46.827                                                                    23094025.139    90625914.628         108.337          30.951  
C27  22393333.718   116607962.494       -1785.986          42.086                                                                    22393346.909    87876302.590       -1345.159          27.772  
C45  25340931.238   131956903.457        -376.045          36.364                                                                    25340941.731    99443289.852        -282.894          27.240  
C30  21767941.468   113351388.373        1106.884          44.627                                                                    21767957.956    85422153.029         835.277          26.331  
R21  20463584.955   109504726.178       -2192.568          46.399  
> 2025  4  1 15 17 25.9996972  0 23
G32  24023548.743   126244549.817        2911.274          45.292    24023564.332    94273626.358        2173.902          27.006  
G01  23642343.746   124241405.557        3172.032          42.625    23642369.828    92777733.387        2367.793          27.442  
G02  21640281.145   113720441.499        1830.865          45.873                                                                  
G23  23095037.838   121365274.534       -3163.271          43.059    23095060.023    90629976.973       -2362.161          30.468  
G08  20245223.324   106389358.154         149.077          42.279    20245233.816    79446647.540         111.024          24.946  
G10  21071879.741   110733433.119        -790.411          47.374    21071887.836    82690634.0001       -590.445          29.642  
G27  21038424.102   110557647.199       -2419.919          45.285    21038433.396    82559329.115       -1807.080          31.698  
E33                                                                  25983670.080   136545088.444        2295.191          40.985    25983684.769   101965560.458        1713.844          24.267  
E03                                                                  27630565.258   145199565.283       -1405.498          38.497    27630584.444   108428336.009       -1050.101          31.986  
E07                                                                  27428207.147   144136220.285        2883.488          40.008    27428235.328                        2153.894          17.966  
E23                                                                  24964183.256   131187664.098       -1974.314          45.874    24964199.145    97964883.399       -1474.406          27.586  
E08                                                                  26355354.867   138498318.613        1108.433          40.348    26355373.455   103424148.1711        827.164          21.597  
E26                                                                  23332666.831   122613986.277         336.818          40.388    23332681.221    91562455.075         251.941          25.862  
E13                                                                  24959149.141   131161211.304       -2085.850          44.875    24959168.028    97945134.836       -1557.624          25.931  
E31                                                                  25575313.479   134399168.444         837.348          41.451    25575332.965   100363103.519         625.666          28.304  
C32  24234365.198   126194722.660        2981.141          44.551                                                                    24234381.986                        2247.214          20.488  
C33  25565160.708   133124496.132       -2676.233          43.846                                                                    25565199.980   100323317.786       -2017.086          33.050  
C36  25526013.209   132920633.272       -2609.428          37.040                                                                    25526044.987                       -1964.433          17.171  
C41  23094005.053   120256533.656         -13.016          46.741                                                                    23094027.238    90625924.209         -10.200          30.208  
C27  22393704.561   116609904.381       -1942.126          41.548                                                                    22393720.150    87877765.991       -1463.181          28.170  
C45  25341035.866   131957435.974        -532.703          36.079                                                                    25341043.061    99443691.186        -401.615          26.645  
C30  21767758.894   113350437.705         950.443          44.747                                                                    21767776.582    85421436.623         716.732          26.176  
R21  20464017.855   109507079.239       -2353.258          46.314  
> 2025  4  1 15 17 26.9996974  0 23
G32  24022995.326   126241639.035        2910.660          44.864    24023010.016    94271452.688        2173.465          26.068  
G01  23641739.664   124238233.846        3171.556          42.338    23641767.245    92775364.767        2368.579          27.839  
G02  21639933.985   113718610.842        1830.462          45.922                                                                  
G23  23095637.723   121368438.091       -3164.002          42.975    23095661.706    90632339.407       -2363.220          30.420  
G08  20245191.845   106389209.437         148.221          42.081    20245205.036    79446536.432         110.253          25.823  
G10  21072029.937   110734223.872        -791.112          47.264    21072038.331    82691224.434        -590.792          29.876  
G27  21038878.288   110560067.522       -2420.719          45.460    21038893.877    82561136.549       -1807.914          32.804  
E33                                                                  25983232.083   136542793.519        2294.567          40.741    25983247.672   101963846.635        1713.793          24.872  
E03                                                                  27630832.373   145200971.175       -1406.369          38.662    27630851.560   108429385.751       -1049.977          32.418  
E07                                                                  27427659.726   144133337.245        2882.931          39.276    27427687.907                        2154.084          19.964  
E23                                                                  24964557.696   131189638.816       -1974.980          45.994    24964573.885    97966357.998       -1474.689          28.133  
E08                                                                  26355143.214   138497210.583        1107.515          40.278    26355162.401                         827.561          20.496  
E26                                                                  23332603.874   122613649.909         336.028          40.631    23332615.566    91562203.901         251.835          25.842  
E13                                                                  24959549.364   131163297.292       -2086.210          44.738    24959563.454    97946692.618       -1558.147          25.229  
E31                                                                  25575156.088   134398331.771         835.970          41.058    25575174.675   100362478.701         624.865          27.712  
C32  24233792.295   126191741.865        2980.525          44.828                                                                    24233812.081                        2247.383          20.521  
C33  25565676.051   133127172.609       -2676.664          43.882                                                                    25565714.724   100325334.747       -2017.039          33.516  
C36  25526512.963   132923243.168       -2610.173          36.896                                                                    25526547.139                       -1963.084          16.082  
C41  23094007.451   120256547.073         -13.866          46.514                                                                    23094030.535    90625934.252         -10.282          30.260  
C27  22394076.603   116611846.706       -1942.730          41.684                                                                    22394093.392    87879229.749       -1464.116          27.715  
C45  25341139.894   131957969.358        -534.070          36.000                                                                    25341146.789    99444093.167        -402.381          26.654  
C30  21767577.819   113349487.609         949.854          45.074                                                                    21767593.409    85420720.611         716.170          27.015  
R21  20464455.852   109509432.871       -2354.053          46.169  
> 2025  4  1 15 17 27.9996975  0 23
G32  24022407.433   126238571.078        3067.958          44.634    24022426.920    94269161.521        2292.553          25.538  
G01  23641107.702   124234904.806        3329.373          42.515    23641134.083    92772878.816        2486.162          27.815  
G02  21639556.847   113716623.068        1987.826          45.845                                                                  
G23  23096213.024   121371444.448       -3006.554          43.481    23096234.609    90634584.393       -2245.514          30.778  
G08  20245130.688   106388903.868         305.236          42.068    20245145.677    79446308.188         227.977          26.181  
G10  21072145.657   110734857.779        -634.296          47.288    21072158.248    82691697.851        -474.019          28.969  
G27  21039313.586   110562330.864       -2263.325          45.704    21039324.379    82562826.684       -1690.402          32.120  
E33                                                                  25982761.109   136540341.256        2452.269          40.308    25982780.595   101962015.537        1830.598          25.299  
E03                                                                  27631070.108   145202252.4741      -1248.878          38.720    27631088.995   108430318.389        -933.303          31.962  
E07                                                                  27427077.829   144130296.880        3040.543          38.629    27427109.307                        2271.386          18.136  
E23                                                                  24964904.556   131191456.513       -1817.691          45.868    24964921.045    97967715.324       -1357.013          29.143  
E08                                                                  26354903.380   138495945.541        1264.721          40.554    26354925.864                         944.158          20.186  
E26                                                                  23332510.939   122613156.338         493.502          40.946    23332521.731    91561835.434         368.865          25.845  
E13                                                                  24959912.412   131165226.008       -1928.799          44.971    24959930.100    97948132.872       -1440.637          24.737  
E31                                                                  25574967.518   134397338.023         993.660          41.241    25574985.206   100361736.717         741.648          27.012  
C32                                                                                                                                  24233212.496    95096314.3491       2363.488          22.224  
C33  25566157.817   133129693.386       -2520.692          43.958                                                                    25566199.189   100327234.469       -1899.881          33.544  
C36  25526987.534   132925697.259       -2453.843          36.948                                                                    25527016.914                       -1846.464          16.802  
C41  23093979.271   120256405.052         141.810          46.566                                                                    23094003.254    90625827.277         106.819          29.535  
C27  22394421.065   116613633.327       -1786.605          42.753                                                                    22394435.455    87880576.100       -1346.170          28.614  
C45  25341213.643   131958347.138        -377.825          35.123                                                                    25341220.538    99444377.884        -284.648          26.977  
C30  21767365.566   113348381.829        1105.839          45.267                                                                    21767380.556    85419887.406         833.070          27.324  
R21  20464871.964   109511626.580       -2193.950          46.228  
> 2025  4  1 15 17 28.9996977  0 23
G32  24021854.916   126235661.275        2909.784          44.494    24021873.203                        2174.043          23.914  
G01  23640504.819   124231733.870        3171.151          42.656    23640529.402    92770510.892        2367.963          27.167  
G02  21639207.588   113714793.533        1829.405          45.808                                                                  
G23  23096815.307   121374609.082       -3164.716          43.691    23096835.993    90636947.614       -2363.864          30.200  
G08  20245104.006   106388756.800         146.915          42.421    20245118.696    79446198.339         109.978          25.339  
G10  21072298.551   110735650.181        -792.657          47.269    21072309.044    82692289.640        -592.566          27.144  
G27  21039768.971   110564752.638       -2421.979          45.442    21039785.160    82564635.171       -1808.667          30.726  
E33                                                                  25982324.011   136538047.065        2294.271          39.836    25982344.097   101960302.342        1713.271          23.194  
E03                                                                  27631336.624   145203659.738       -1407.329          38.986    27631357.309   108431369.210       -1051.155          31.568  
E07                                                                  27426531.008   144127414.570        2882.376          38.026    27426560.088                        2151.414          17.623  
E23                                                                  24965279.896   131193432.508       -1976.007          45.712    24965297.284    97969191.031       -1476.522          28.964  
E08                                                                  26354695.324   138494838.980        1106.209          40.917    26354715.110                         827.070          18.677  
E26                                                                  23332445.884   122612821.007         335.204          40.930    23332457.576    91561584.895         250.927          24.325  
E13                                                                  24960311.436   131167312.802       -2086.791          45.308    24960327.025    97949691.184       -1559.259          23.312  
E31                                                                  25574809.828   134396502.758         835.013          41.097    25574826.316   100361112.965         623.568          26.202  
C32  24232618.607   126185625.6531       2979.664          44.425                                                                    24232638.993    95094068.851        2245.261          21.640  
C33  25566674.060   133132371.114       -2677.930          43.416                                                                    25566713.033   100329252.375       -2018.171          32.259  
C36  25527486.389   132928308.146       -2610.918          36.719                                                                    25527518.467                       -1967.215          17.533  
C41  23093982.868   120256420.140         -15.309          46.567                                                                    23094005.952    90625838.626         -11.696          28.802  
C27  22394793.407   116615576.763       -1943.616          42.862                                                                    22394808.097    87882040.741       -1464.927          27.532  
C45  25341315.572   131958882.010        -535.118          34.951                                                                    25341322.168    99444780.925        -403.067          24.949  
C30  21767188.089   113347432.949         948.724          45.448                                                                    21767199.781    85419172.385         714.464          26.800  
R21  20465313.558   109513981.440       -2355.027          46.537  
> 2025  4  1 15 17 29.9996978  0 23
G32  24021273.319   126232594.372        3066.793          44.330    24021290.407    94264698.6291       2289.920          24.798  
G01  23639873.456   124228405.705        3327.841          42.354    23639898.039    92768025.570        2485.259          28.136  
G02  21638828.950   113712806.887        1986.382          45.392                                                                  
G23  23097389.410   121377616.636       -3007.499          43.191    23097408.597    90639193.430       -2245.523          30.834  
G08  20245045.547   106388452.957         303.439          42.493    20245062.335    79445971.541         226.163          25.222  
G10  21072416.969   110736285.796        -635.845          46.294    21072429.860    82692764.167        -474.485          28.725  
G27  21040202.471   110567017.509       -2265.207          45.970    21040215.962    82566326.417       -1691.263          32.370  
E33                                                                  25981856.935   136535595.617        2451.190          39.996    25981879.119   101958471.714        1830.129          25.469  
E03                                                                  27631576.757   145204910.088       -1250.510          39.580    27631595.644   108432302.879        -933.655          32.449  
E23                                                                  24965624.957   131195251.503       -1819.260          45.671    24965643.844    97970549.332       -1358.927          29.670  
E07                                                                  27425953.008   144124375.017        3039.356          37.613    27425982.987                        2270.108          20.010  
E08                                                                  26354453.691   138493575.435        1263.288          40.188    26354472.878                         943.472          19.667  
E26                                                                  23332350.250   122612328.558         492.180          40.783    23332363.441    91561217.174         368.395          24.446  
E13                                                                  24960680.181   131169242.400       -1929.651          45.487    24960693.372    97951132.028       -1440.726          24.652  
E31                                                                  25574621.558   134395510.533         991.901          41.344    25574638.646   100360372.032         740.565          28.254  
C32  24232016.624   126182490.302        3135.089          44.760                                                                    24232036.710    95091706.067        2362.495          23.579  
C33  25567159.124   133134893.230       -2522.127          43.948                                                                    25567197.198   100331153.059       -1900.751          33.793  
C36  25527960.960   132930763.323       -2455.546          36.707                                                                    25527989.141                       -1850.351          17.349  
C41  23093954.088   120256279.881         140.008          46.401                                                                    23093979.271    90625732.875         105.657          30.168  
C27  22395134.571   116617364.584       -1788.080          41.715                                                                    22395151.359    87883387.956       -1346.806          28.566  
C45  25341392.319   131959261.508        -379.796          36.047                                                                    25341394.118    99445066.969        -286.478          25.744  
C30  21766974.937   113346328.440        1104.261          44.886                                                                    21766986.929    85418339.963         832.144          27.212  
R21  20465723.974   109516176.501       -2195.238          46.517  
> 2025  4  1 15 17 30.9996980  0 23
G32  24020717.503   126229685.207        2908.945          44.955    24020736.990    94262526.028        2172.979          24.821  
G01  23639271.173   124225235.171        3170.639          42.849    23639293.658    92765658.053        2367.614          27.648  
G02  21638479.692   113710978.080        1828.745          44.874                                                                  
G23  23097990.794   121380781.991       -3165.510          43.338    23098011.479    90641557.127       -2363.473          30.741  
G08  20245022.163   106388307.221         145.421          42.781    20245034.454    79445862.638         108.525          24.266  
G10  21072570.763   110737079.492        -794.104          46.543    21072581.555    82693356.930        -593.091          28.445  
G27  21040662.053   110569440.348       -2423.181          45.383    21040677.042    82568135.725       -1809.715          32.498  
E33                                                                  25981418.638   136533301.830        2293.538          39.683    25981443.521   101956758.609        1714.238          23.964  
E03                                                                  27631842.673   145206318.289       -1408.191          39.225    27631862.759   108433354.467       -1051.718          32.142  
E23                                                                  24966000.897   131197228.410       -1976.964          45.717    24966019.784    97972025.528       -1476.546          29.312  
E07                                                                  27425405.287   144121493.027        2881.818          38.432    27425434.367                        2152.204          18.495  
E08                                                                  26354244.736   138492469.835        1105.381          40.370    26354263.023                         825.511          19.765  
E26                                                                  23332285.795   122611993.875         334.653          40.869    23332300.484    91560967.206         250.865          24.237  
E13                                                                  24961076.806   131171329.637       -2087.522          45.075    24961092.395    97952690.667       -1558.329          22.707  
E31                                                                  25574462.668   134394676.318         833.943          41.454    25574477.957   100359749.041         622.889          28.151  
C32  24231445.220   126179511.274        2978.860          44.813                                                                    24231464.706    95089461.146        2244.445          23.863  
C33  25567673.568   133137571.756       -2678.646          44.737                                                                    25567711.642   100333171.571       -2018.708          34.161  
C36  25528463.712   132933374.861       -2611.763          37.185                                                                    25528489.195                       -1966.967          17.402  
C41  23093959.185   120256296.275         -16.842          46.736                                                                    23093983.468    90625745.310         -12.964          29.206  
C27  22395508.712   116619308.743       -1944.406          42.754                                                                    22395524.001    87884853.159       -1465.415          27.814  
C45  25341493.649   131959797.565        -536.257          36.552                                                                    25341497.846    99445470.955        -404.404          25.553  
C30  21766792.963   113345380.374         947.969          44.956                                                                    21766803.755    85417625.464         714.695          26.569  
R21  20466168.866   109518532.335       -2356.084          46.596  
> 2025  4  1 15 17 31.9996982  0 23
G32  24020166.185   126226776.458        2908.305          45.385    24020184.772    94260354.100        2171.827          24.119  
G01  23638666.792   124222064.970        3169.763          43.137    23638689.276    92763290.663        2367.330          28.191  
G02  21638126.537   113709149.716        1828.009          44.411                                                                  
G23  23098593.976   121383947.759       -3166.012          43.562    23098613.463    90643921.239       -2364.131          30.794  
G08  20244994.582   106388162.199         144.556          43.061    20245006.574    79445754.284         108.381          24.662  
G10  21072719.460   110737873.889        -794.750          46.488    21072732.651    82693950.092        -593.161          28.287  
G27  21041125.232   110571863.829       -2424.170          45.237    21041138.123    82569945.399       -1809.893          33.182  
E33                                                                  25980981.541   136531008.281        2293.217          39.270    25981004.025   101955045.932        1713.290          23.458  
E03                                                                  27632108.889   145207727.099       -1409.139          38.975    27632131.374   108434406.483       -1051.868          32.226  
E07                                                                  27424854.868   144118611.346        2881.253          38.390    27424884.248                        2152.799          19.480  
E23                                                                  24966376.237   131199205.883       -1977.970          45.761    24966396.323    97973502.257       -1477.108          28.717  
E08                                                                  26354033.083   138491364.879        1104.490          40.338    26354052.869                         826.815          17.546  
E26                                                                  23332220.140   122611659.633         334.003          41.067    23332237.528    91560717.707         249.180          24.478  
E13                                                                  24961473.731   131173417.148       -2087.855          44.700    24961490.819    97954249.561       -1558.853          24.502  
E31                                                                  25574302.879   134393842.699         833.073          41.586    25574319.667   100359126.531         622.326          28.951  
C32  24230873.515   126176532.733        2978.034          44.786                                                                    24230892.702    95087216.412        2244.449          24.657  
C33  25568188.312   133140250.780       -2679.329          44.613                                                                    25568225.786   100335190.483       -2018.999          34.095  
C36  25528963.167   132935986.814       -2612.789          37.213                                                                    25528991.647                       -1967.958          15.982  
C41  23093963.382   120256313.384         -17.538          46.900                                                                    23093986.766    90625758.190         -13.192          28.410  
C27  22395883.752   116621253.381       -1945.165          43.354                                                                    22395897.843    87886318.708       -1466.552          27.241  
C45  25341594.079   131960334.383        -537.318          36.800                                                                    25341599.476    99445875.529        -405.477          26.524  
C30  21766610.689   113344432.808         947.166          45.022                                                                    21766622.381    85416911.426         713.751          26.818  
R21  20466611.060   109520888.740       -2356.633          46.739  
> 2025  4  1 15 17 32.9996983  0 23
G32  24019579.191   126223710.555        3065.503          45.004    24019599.577    94258064.576        2289.860          25.328  
G01  23638033.330   124218737.611        3326.925          43.282    23638057.313    92760805.875        2485.212          27.889  
G02  21637751.496   113707164.277        1984.979          44.472                                                                  
G23  23099165.680   121386956.243       -3008.650          43.145    23099186.366    90646167.867       -2246.762          31.265  
G08  20244938.521   106387860.393         301.266          42.340    20244949.613    79445528.922         225.151          26.201  
G10  21072837.878   110738511.376        -637.982          46.456    21072854.067    82694426.230        -476.530          28.908  
G27  21041550.338   110574130.358       -2266.892          44.766    21041569.525    82571637.953       -1692.688          33.962  
E33                                                                  25980517.162   136528557.605        2450.287          39.910    25980538.148   101953216.124        1828.168          24.535  
E03                                                                  27632349.622   145208978.769       -1251.885          39.447    27632370.308   108435341.216        -934.976          32.886  
E07                                                                  27424277.468   144115572.354        3038.623          38.272    27424305.948                        2270.505          18.841  
E23                                                                  24966723.997   131201026.449       -1821.169          45.543    24966741.085    97974861.704       -1359.865          30.026  
E08                                                                  26353790.850   138490102.820        1261.652          40.562    26353812.735                         940.920          13.734  
E26                                                                  23332129.303   122611168.264         490.990          41.489    23332142.794    91560350.795         366.272          25.084  
E13                                                                  24961840.078   131175347.328       -1930.534          44.965    24961855.967    97955690.937       -1441.245          25.467  
E31                                                                  25574114.909   134392852.133         990.067          41.897    25574131.397   100358386.817         739.847          29.353  
C32  24230272.731   126173398.589        3133.718          45.048                                                                    24230290.719    95084854.546        2361.431          24.770  
C33  25568671.277   133142774.000       -2523.431          44.221                                                                    25568711.150   100337092.032       -1901.478          35.124  
C36  25529435.040   132938443.162       -2456.648          36.145                                                                    25529458.723                       -1849.361          13.964  
C41  23093938.199   120256175.040         137.844          46.861                                                                    23093958.885    90625653.955         104.005          29.173  
C27  22396229.413   116623042.282       -1789.238          43.378                                                                    22396242.604    87887666.804       -1348.801          26.351  
C45  25341666.329   131960715.707        -381.618          37.155                                                                    25341673.225    99446162.851        -288.243          27.395  
C30  21766399.335   113343329.629        1102.719          45.082                                                                    21766410.727    85416079.983         831.454          27.299  
R21  20467013.082   109523085.143       -2196.739          46.316  
> 2025  4  1 15 17 33.9996985  0 23
G32  24019020.378   126220802.683        2907.610          43.661    24019044.961    94255893.244        2171.044          23.994  
G01  23637429.548   124215568.260        3168.902          42.283    23637453.232    92758439.231        2365.816          26.615  
G02  21637407.335   113705336.955        1826.741          44.635                                                                  
G23  23099768.563   121390122.684       -3166.897          43.616    23099788.349    90648532.409       -2364.758          30.659  
G08  20244905.244   106387716.920         142.893          41.933    20244920.533    79445421.932         106.436          24.593  
G10  21072996.168   110739307.182        -796.486          47.265    21073006.361    82695020.543        -595.171          30.856  
G27  21042015.916   110576555.172       -2425.228          43.685    21042030.605    82573448.784       -1811.344          33.136  
E33                                                                  25980086.660   136526264.879        2292.336          40.816    25980101.050   101951503.775        1712.809          22.829  
E03                                                                  27632615.239   145210388.539       -1410.480          42.843    27632637.423   108436393.970       -1053.146          34.092  
E23                                                                  24967099.637   131203005.288       -1979.507          44.967    24967118.524    97976339.426       -1477.834          30.215  
E07                                                                  27423738.741   144112691.282        2880.733          37.940    27423757.028                        2151.272          17.489  
E08                                                                  26353585.792   138488998.897        1103.334          41.206    26353604.979                         825.069          17.449  
E26                                                                  23332064.548   122610834.936         332.930          41.448    23332079.238    91560101.734         248.891          24.809  
E13                                                                  24962236.403   131177435.332       -2088.533          44.911    24962253.791    97957250.084       -1559.274          24.268  
E31                                                                  25573954.819   134392019.811         831.621          42.910    25573972.507   100357765.290         621.113          28.752  
C32  24229701.027   126170421.180        2976.968          45.248                                                                    24229719.015    95082610.608        2243.676          26.087  
C33  25569185.721   133145453.804       -2680.360          43.061                                                                    25569225.593   100339111.574       -2019.862          34.445  
C36  25529933.295   132941056.237       -2613.312          34.710                                                                    25529956.679                       -1967.006          11.000  
C41  23093940.598   120256193.560         -19.136          46.750                                                                    23093962.183    90625667.905         -14.358          30.134  
C27  22396603.854   116624987.819       -1946.074          42.399                                                                    22396614.646    87889132.929       -1466.604          25.489  
C45  25341769.158   131961253.989        -538.908          38.175                                                                    25341776.953    99446568.374        -405.105          26.774  
C30  21766215.563   113342383.152         945.902          44.522                                                                    21766229.053    85415366.683         713.446          25.343  
R21  20467435.789   109525442.472       -2357.803          46.100  
> 2025  4  1 15 17 34.9996986  0 23
G32  24018439.980   126217737.584        3065.045          42.956    24018463.664    94253604.297        2288.957          22.095  
G01  23636799.384   124212241.487        3326.858          41.084    23636819.770    92755954.828        2484.565          24.098  
G02  21637030.795   113703352.431        1984.735          44.417                                                                  
G23  23100341.466   121393132.140       -3009.480          43.406    23100361.852    90650779.774       -2247.420          31.179  
G08  20244847.983   106387416.602         300.284          43.747    20244864.172                         219.955          22.566  
G10  21073113.387   110739946.178        -639.127          47.712    21073127.477    82695497.707        -477.458          31.908  
G27  21042453.013   110578822.930       -2267.631          43.328    21042462.606    82575142.327       -1693.946          32.558  
E33                                                                  25979620.183   136523814.756        2450.087          40.804    25979636.072   101949674.311        1829.767          24.798  
E03                                                                  27632853.574   145211641.459       -1253.097          44.686    27632875.458   108437329.611        -935.869          35.631  
E07                                                                  27423159.242   144109652.845        3038.555          37.330    27423180.227                        2269.448          18.689  
E23                                                                  24967444.698   131204826.886       -1821.498          44.723    24967465.983    97977699.811       -1360.480          30.450  
E08                                                                  26353341.761   138487738.110        1260.564          41.784    26353363.046                         943.079          15.894  
E26                                                                  23331974.011   122610344.403         490.471          40.461    23331987.201    91559735.543         365.931          24.946  
E13                                                                  24962607.247   131179366.145       -1930.874          45.004    24962622.836    97958691.972       -1441.837          23.574  
E31                                                                  25573768.049   134391030.513         989.236          43.825    25573784.238   100357026.538         738.509          28.338  
C32  24229098.444   126167287.932        3133.256          44.813                                                                    24229117.331    95080249.277        2361.362          26.018  
C33  25569670.186   133147978.052       -2524.233          41.181                                                                    25569710.058   100341013.910       -1902.447          33.469  
C36  25530407.567   132943513.505       -2457.387          35.098                                                                    25530429.152                       -1850.580          17.271  
C41  23093913.916   120256056.724         136.682          46.498                                                                    23093935.801    90625564.865         102.689          31.305  
C27  22396945.617   116626777.596       -1789.738          40.004                                                                    22396960.307    87890481.736       -1348.097          25.027  
C45  25341842.308   131961636.745        -382.897          38.543                                                                    25341850.102    99446856.897        -289.017          26.804  
C30  21766002.110   113341280.973        1102.049          43.657                                                                    21766017.699    85414536.123         830.671          24.707  
R21  20467861.195   109527639.993       -2197.598          46.116  
> 2025  4  1 15 17 35.9996988  0 23
G32  24017893.159   126214830.457        2907.134          43.163    24017909.947    94251433.356        2171.114          22.442  
G01  23636195.602   124209072.652        3168.525          39.916    23636216.288                        2367.454          21.673  
G02  21636677.340   113701525.986        1826.424          42.728                                                                  
G23  23100943.450   121396299.518       -3167.379          42.230    23100963.836    90653145.037       -2365.484          30.949  
G08  20244824.000   106387274.676         141.536          44.619    20244836.591    79445091.6921        105.722          23.109  
G10  21073264.183   110740743.466        -797.549          47.718    21073279.172    82696093.062        -595.785          32.915  
G27  21042911.396   110581249.008       -2426.441          43.592    21042924.287    82576953.915       -1811.607          33.017  
E33                                                                  25979184.285   136521522.571        2292.142          40.429    25979199.874   101947962.703        1710.743          24.579  
E03                                                                  27633123.087   145213052.500       -1411.142          44.226    27633144.072   108438383.274       -1053.819          37.384  
E07                                                                  27422607.024   144106772.238        2880.700          36.665    27422631.307                        2151.465          16.642  
E23                                                                  24967823.935   131206806.735       -1980.053          44.794    24967842.522    97979178.253       -1478.633          31.024  
E08                                                                  26353134.605   138486635.444        1102.361          41.823    26353151.693                         823.265          19.144  
E26                                                                  23331907.756   122610011.886         332.462          39.435    23331923.945    91559487.164         248.264          26.620  
E13                                                                  24963003.872   131181454.773       -2088.633          44.695    24963018.562    97960251.620       -1559.566          24.107  
E31                                                                  25573610.658   134390199.428         830.811          43.545    25573626.847   100356405.892         620.435          28.284  
C32  24228528.539   126164311.313        2976.481          44.207                                                                    24228546.526    95078006.110        2243.301          27.245  
C33  25570188.227   133150658.852       -2680.932          40.500                                                                    25570224.802   100343034.278       -2020.705          32.798  
C36  25530911.218   132946127.242       -2613.999          36.518                                                                    25530935.201                       -1968.225          19.998  
C41  23093920.512   120256076.755         -20.263          46.490                                                                    23093940.298    90625579.967         -15.624          31.115  
C27  22397320.058   116628724.039       -1946.678          39.749                                                                    22397334.448    87891948.520       -1466.354          23.876  
C45  25341947.535   131962176.353        -539.809          38.749                                                                    25341953.830    99447263.524        -406.743          27.787  
C30  21765821.635   113340335.469         945.428          44.027                                                                    21765836.625    85413823.645         712.716          25.498  
R21  20468302.789   109529998.526       -2358.823          46.315  
> 2025  4  1 15 17 36.9996989  0 23
G32  24017307.664   126211766.211        3064.356          42.630    24017327.150                        2287.463          20.877  
G01  23635563.340   124205746.429        3326.364          39.391    23635583.426                        2486.334          21.264  
G02  21636301.400   113699542.351        1984.196          41.024                                                                  
G23  23101512.756   121399309.939       -3010.388          41.848    23101537.638    90655393.077       -2247.898          30.475  
G08  20244767.039   106386975.853         298.897          44.722    20244779.930    79444868.626         222.827          23.641  
G10  21073389.196   110741383.955        -640.568          48.054    21073400.588    82696571.385        -478.616          32.702  
G27  21043342.497   110583518.005       -2268.701          42.899    21043355.988    82578648.474       -1695.067          32.775  
E33                                                                  25978715.410   136519072.935        2450.067          39.218    25978734.896   101946133.336        1829.727          23.921  
E03                                                                  27633361.722   145214306.631       -1254.087          43.798    27633382.707   108439319.874        -936.806          37.645  
E07                                                                  27422029.924   144103734.333        3038.297          35.985    27422052.708                        2270.116          17.263  
E23                                                                  24968167.797   131208629.401       -1822.421          43.663    24968189.082    97980539.403       -1361.161          30.440  
E08                                                                  26352895.070   138485375.919        1259.521          42.069    26352912.159                         940.882          18.258  
E26                                                                  23331816.320   122609522.215         490.038          38.975    23331831.009    91559121.538         365.689          25.813  
E13                                                                  24963369.019   131183386.242       -1931.259          44.643    24963385.808    97961693.865       -1441.599          24.652  
E31                                                                  25573422.988   134389211.346         988.320          44.334    25573439.476   100355668.134         737.605          26.996  
C32  24227927.755   126161178.928        3132.459          42.962                                                                    24227944.543    95075645.624        2360.416          26.187  
C33  25570669.694   133153184.227       -2525.480          42.086                                                                    25570709.866   100344937.456       -1903.396          30.958  
C36  25531383.091   132948585.200       -2458.007          37.306                                                                    25531410.372                       -1850.408          16.786  
C41  23093890.532   120255941.454         135.227          45.970                                                                    23093914.216    90625477.977         101.974          30.054  
C27  22397664.819   116630514.782       -1790.488          40.357                                                                    22397677.411                       -1348.926          21.377  
C45  25342021.883   131962560.506        -384.236          38.383                                                                    25342028.479    99447553.086        -290.015          26.768  
C30  21765611.781   113339234.323        1101.362          43.706                                                                    21765624.072    85412993.870         829.843          25.612  
R21  20468712.605   109532197.222       -2198.586          46.468  
> 2025  4  1 15 17 37.9996991  0 23
G32  24016756.645   126208856.341        2911.647          42.160    24016774.033                        2169.595          19.405  
G01  23634960.757   124202574.458        3174.007          39.586    23634979.644                        2366.498          19.868  
G02  21635950.943   113697713.318        1830.641          40.416                                                                  
G23  23102117.737   121402474.889       -3163.208          41.759    23102139.921    90657756.519       -2362.081          29.761  
G08  20244740.658   106386831.832         145.648          44.897    20244752.350    79444760.966         109.260          23.154  
G10  21073541.491   110742179.226        -793.651          48.058    21073551.984    82697165.213        -592.419          32.017  
G27  21043799.681   110585941.728       -2421.997          42.469    21043817.668    82580458.276       -1808.466          31.938  
E33                                                                  25978278.612   136516777.691        2297.146          39.681    25978296.599   101944419.337        1715.523          24.097  
E03                                                                  27633628.237   145215715.531       -1407.186          43.734    27633651.021   108440371.882       -1050.541          37.046  
E07                                                                                                                                  27421501.989                        2152.537          18.243  
E23                                                                  24968546.435   131210606.676       -1975.628          43.530    24968564.722    97982015.843       -1475.103          30.104  
E08                                                                  26352683.717   138484271.079        1106.621          41.894    26352702.903                         824.017          17.624  
E26                                                                  23331753.063   122609187.051         337.023          38.841    23331764.456    91558871.113         252.206          25.888  
E13                                                                  24963767.144   131185472.095       -2083.856          44.754    24963782.133    97963251.538       -1556.078          22.844  
E31                                                                  25573264.997   134388377.993         835.123          44.407    25573281.186   100355045.745         623.882          27.412  
C32  24227352.153   126158199.570        2981.055          43.286                                                                    24227372.539    95073400.293        2246.717          26.221  
C33  25571182.938   133155862.782       -2676.830          41.731                                                                    25571224.909   100346956.005       -2017.202          30.347  
C36  25531889.141   132951196.099       -2609.220          38.321                                                                    25531912.825                       -1968.625          18.205  
C41  23093891.731   120255959.563         -16.580          45.583                                                                    23093917.813    90625491.627         -12.242          29.003  
C27  22398038.660   116632458.741       -1942.252          40.395                                                                    22398051.552                       -1464.930          20.888  
C45  25342122.913   131963098.016        -535.860          38.728                                                                    25342131.607    99447958.179        -404.554          26.221  
C30  21765428.907   113338286.349         949.790          43.741                                                                    21765442.098    85412279.406         716.084          25.268  
R21  20469152.401   109534553.344       -2354.262          46.521  
> 2025  4  1 15 17 38.9996993  0 23
G32  24016199.331   126205946.233        2908.360          42.232    24016219.717                        2171.937          19.743  
G01  23634352.178   124199402.197        3170.349          39.871    23634377.661                        2368.488          20.050  
G02  21635603.783   113695884.002        1827.203          40.957                                                                  
G23  23102720.020   121405639.635       -3166.793          41.758    23102741.305    90660119.791       -2364.747          29.232  
G08  20244711.878   106386687.904         141.670          44.615    20244724.769    79444653.550         105.588          22.626  
G10  21073690.488   110742974.580        -797.475          47.950    21073703.679    82697759.162        -595.690          31.546  
G27  21044261.061   110588365.401       -2425.856          42.226    21044279.049    82582268.191       -1811.779          31.641  
E33                                                                  25977840.315   136514482.015        2293.695          39.501    25977859.802   101942705.059        1712.332          23.481  
E03                                                                  27633897.751   145217124.321       -1411.062          43.733    27633918.137   108441423.945       -1053.623          36.790  
E23                                                                  24968922.075   131212583.768       -1979.288          43.667    24968941.262    97983492.253       -1478.010          29.236  
E07                                                                                                                                  27420951.870                        2155.069          16.241  
E08                                                                  26352472.963   138483166.186        1102.877          42.118    26352493.348                         824.592          17.558  
E26                                                                  23331690.407   122608851.622         333.495          38.608    23331701.799    91558620.718         248.797          25.354  
E13                                                                  24964162.270   131187557.569       -2087.197          44.705    24964178.159    97964808.918       -1558.458          22.027  
E31                                                                  25573104.608   134387544.574         831.230          44.445    25573121.696   100354423.412         620.878          27.229  
C32  24226780.449   126155220.026        2977.409          42.637                                                                    24226799.036    95071154.816        2244.577          25.786  
C33  25571696.783   133158541.243       -2680.543          41.720                                                                    25571739.053   100348974.517       -2020.076          30.417  
C36  25532384.998   132953806.753       -2612.515          38.339                                                                    25532415.277                       -1968.663          18.911  
C41  23093896.228   120255977.749         -20.317          45.735                                                                    23093920.811    90625505.337         -15.023          28.346  
C27  22398412.502   116634402.459       -1945.751          40.471                                                                    22398423.894                       -1464.892          20.458  
C45  25342224.543   131963635.570        -539.708          38.732                                                                    25342233.837    99448363.191        -406.679          27.147  
C30  21765245.734   113337338.231         946.046          43.574                                                                    21765259.824    85411564.842         713.600          24.279  
R21  20469585.301   109536909.350       -2358.061          46.471  
> 2025  4  1 15 17 39.9996994  0 23
G32  24015615.635   126202882.406        3061.172          42.482    24015636.321                        2289.362          17.140  
G01  23633719.317   124196075.919        3323.584          39.414    23633743.300                        2487.678          17.937  
G02  21635226.944   113693900.965        1980.350          41.557                                                                  
G23  23103295.621   121408650.834       -3013.942          41.764    23103314.808    90662368.407       -2250.617          28.733  
G08  20244655.217   106386390.528         294.455          44.570    20244667.508    79444431.3841        221.813          21.625  
G10  21073814.602   110743616.572        -644.838          47.900    21073825.394    82698238.539        -481.303          31.305  
G27  21044693.662   110590635.526       -2272.945          41.960    21044710.450    82583963.395       -1697.568          31.563  
E33                                                                  25977374.438   136512032.400        2446.909          39.758    25977393.325   101940875.813        1826.676          23.014  
E03                                                                  27634135.786   145218379.712       -1258.316          44.351    27634157.671   108442361.399        -939.741          36.798  
E23                                                                  24969270.134   131214407.208       -1826.220          44.501    24969288.122    97984853.915       -1363.555          29.641  
E07                                                                                                                                  27420375.669                        2270.539          16.261  
E08                                                                  26352231.630   138481907.915        1255.375          42.027                                                                  
E26                                                                  23331594.773   122608362.508         486.324          38.534    23331609.463    91558255.607         362.444          25.156  
E13                                                                  24964528.916   131189489.369       -1934.547          44.567    24964545.105                       -1441.942          20.938  
E31                                                                  25572917.238   134386557.638         983.999          44.248    25572933.127   100353686.414         734.915          27.161  
C32  24226178.765   126152088.082        3129.241          42.546                                                                    24226198.852    95068794.732        2357.800          25.870  
C33  25572180.348   133161067.599       -2529.117          41.197                                                                    25572224.717   100350878.347       -1906.036          30.050  
C36  25532856.871   132956265.031       -2461.241          38.225                                                                    25532886.850                       -1850.980          18.927  
C41  23093872.545   120255844.023         130.918          45.920                                                                    23093895.629    90625404.544          98.497          28.614  
C27  22398755.764   116636193.940       -1794.312          39.941                                                                    22398767.756                       -1350.815          20.646  
C45  25342300.091   131964021.069        -388.290          38.927                                                                    25342308.785    99448653.757        -293.053          27.157  
C30  21765037.078   113336237.860        1097.646          43.916                                                                    21765047.271    85410735.786         825.983          24.357  
R21  20469996.916   109539109.007       -2202.520          46.029  
> 2025  4  1 15 17 40.9996996  0 23
G32  24015065.516   126199979.581        2902.025          42.402    24015082.904                        2168.197          20.489  
G01  23633122.430   124192910.673        3164.262          39.914    23633140.118                        2366.761          19.748  
G02  21634881.883   113692079.047        1820.941          42.466                                                                  
G23  23103900.602   121411823.003       -3172.892          42.329    23103917.091    90664737.210       -2369.033          29.416  
G08  20244628.535   106386254.541         134.981          44.448    20244641.726                         103.508          20.751  
G10  21073963.299   110744419.863        -804.011          47.844    21073978.588    82698838.386        -600.077          31.903  
G27  21045158.040   110593066.900       -2432.261          42.556    21045173.030    82585778.930       -1815.546          31.858  
E33                                                                  25976939.139   136509743.730        2287.878          40.559    25976959.225   101939166.773        1708.791          23.685  
E03                                                                  27634407.098   145219796.218       -1417.458          44.719    27634427.484   108443419.139       -1057.976          37.690  
E23                                                                  24969647.273   131216391.860       -1985.521          45.292    24969667.059    97986335.931       -1482.127          30.235  
E07                                                                                                                                  27419828.248                        2148.480          16.753  
E08                                                                  26352021.175   138480810.766        1096.396          41.997                                                                  
E26                                                                  23331530.917   122608034.424         327.355          38.986    23331546.806    91558010.425         245.097          26.172  
E13                                                                                                                                  24964947.427    97967810.8291      -1562.091          21.773  
E31                                                                  25572757.748   134385731.943         824.859          44.060    25572776.036   100353069.794         616.479          27.307  
C32  24225608.260   126149115.785        2971.688          43.218                                                                    24225628.047    95066554.777        2239.590          26.553  
C33  25572697.490   133163753.576       -2686.884          39.963                                                                    25572740.360   100352902.367       -2024.097          30.864  
C36  25533358.724   132958882.883       -2618.655          37.466                                                                    25533386.304                       -1967.006          16.394  
C41  23093876.742   120255870.134         -26.871          46.171                                                                    23093900.425    90625424.237         -20.545          29.440  
C27  22399130.205   116638144.982       -1951.794          39.937                                                                    22399141.297                       -1469.667          20.330  
C45  25342403.519   131964566.443        -546.461          38.432                                                                    25342414.012    99449064.674        -411.441          27.382  
C30  21764853.605   113335297.171         939.760          43.708                                                                    21764866.796    85410026.745         708.933          25.370  
R21  20470435.812   109541472.707       -2364.334          45.648  
> 2025  4  1 15 17 41.9996997  0 23
G32  24014475.824   126196918.845        3061.102          42.554    24014497.110                        2286.026          20.463  
G01                                                                  23632507.555                        2480.028          21.114  
G02  21634502.945   113690099.353        1980.244          42.985                                                                  
G23  23104475.005   121414837.405       -3014.068          42.751    23104491.493    90666988.220       -2250.751          29.932  
G08                                                                  20244585.965    79444102.9951        219.475          22.081  
G10  21074088.312   110745065.651        -645.499          47.529    21074100.904    82699320.606        -481.727          31.327  
G27  21045593.639   110595340.647       -2273.396          43.559    21045605.331    82587476.886       -1697.889          31.381  
E33                                                                  25976473.262   136507297.141        2447.451          40.810    25976491.249   101937339.762        1827.292          23.473  
E03                                                                  27634645.433   145221055.068       -1258.618          44.786    27634667.618   108444359.223        -939.942          36.832  
E07                                                                  27419227.464   144089016.6721       3035.773          37.004    27419254.745                        2266.984          19.868  
E23                                                                  24969994.433   131218218.770       -1826.540          45.085    24970013.020    97987700.271       -1364.226          29.733  
E08                                                                  26351783.140   138479556.001        1255.083          41.803    26351803.826                         940.881          16.717  
E26                                                                  23331437.682   122607548.587         486.148          39.268    23331454.770    91557647.636         363.521          25.658  
E13                                                                  24965296.685   131193516.6691      -1934.126          44.562    24965317.071                       -1444.335          21.571  
E31                                                                  25572571.877   134384748.630         983.631          43.546    25572590.764   100352335.556         734.743          27.118  
C32  24225010.174   126145987.128        3128.992          43.611                                                                    24225026.663    95064197.083        2357.762          26.299  
C33  25573185.252   133166283.192       -2529.304          39.412                                                                    25573225.424   100354808.704       -1905.690          31.224  
C36  25533831.196   132961344.396       -2460.897          37.905                                                                    25533860.876                       -1849.361          15.245  
C41  23093852.459   120255740.164         130.303          46.295                                                                    23093875.543    90625326.298          98.285          28.980  
C27                                                                                                                                  22399484.260                       -1352.386          21.395  
C45  25342478.167   131964955.732        -389.282          38.142                                                                    25342487.761    99449358.086        -293.127          26.750  
C30  21764641.652   113334200.189        1097.350          44.194                                                                    21764657.241    85409199.943         827.714          25.036  
R21  20470844.729   109543675.860       -2202.768          45.780  
> 2025  4  1 15 17 42.9996999  0 23
G32                                                                  24013946.391    94235889.3001       2169.094          23.057  
G01  23631884.587   124186420.7141       3167.033          42.206    23631907.371                        2364.189          20.785  
G02  21634158.784   113688276.236        1823.542          45.622                                                                  
G23  23105077.288   121418008.221       -3170.451          42.318    23105095.275    90669356.065       -2368.008          30.044  
G08  20244552.988   106385824.5031        136.841          44.391    20244560.482    79444000.797         101.939          25.961  
G10  21074242.705   110745868.216        -802.245          46.634    21074253.498    82699919.983        -599.153          29.910  
G27  21046057.717   110597771.116       -2429.938          45.241    21046069.110    82589291.845       -1815.065          30.358  
E33                                                                  25976037.064   136505006.992        2290.696          41.867    25976057.150   101935629.683        1709.264          24.644  
E03                                                                  27634915.846   145222470.502       -1415.134          44.616    27634936.532   108445416.248       -1057.120          36.866  
E07                                                                  27418683.041   144086138.017        2879.110          37.831    27418710.322   107596892.2171       2147.796          18.526  
E23                                                                  24970373.370   131220202.466       -1983.320          42.655    24970390.159    97989181.587       -1481.195          30.291  
E08                                                                  26351575.384   138478457.822        1098.521          43.146    26351592.172                         823.236          19.975  
E26                                                                  23331376.224   122607219.221         329.644          40.898    23331391.814    91557401.708         246.464          27.183  
E13                                                                  24965693.910   131195607.706       -2090.726          44.067    24965714.895                       -1563.177          18.529  
E31                                                                  25572415.385   134383922.045         826.837          41.622    25572433.073   100351718.328         617.285          25.314  
C32  24224435.172   126143013.665        2974.136          41.309                                                                    24224456.758    95061956.303        2240.410          28.756  
C33  25573699.097   133168967.889       -2684.352          40.420                                                                    25573741.367   100356831.952       -2023.182          30.987  
C36  25534336.047   132963961.028       -2616.282          39.305                                                                    25534364.827                       -1972.703          12.278  
C41  23093858.454   120255765.595         -25.156          46.641                                                                    23093880.339    90625345.471         -19.098          29.458  
C27  22399845.210   116641889.5431      -1949.323          41.971                                                                    22399859.600                       -1469.642          22.101  
C45  25342584.594   131965500.386        -544.584          36.400                                                                    25342592.988    99449768.561        -410.458          25.999  
C30  21764460.877   113333258.415         942.083          45.610                                                                    21764477.965    85408490.226         710.301          25.919  
R21  20471288.722   109546038.472       -2362.161          46.067  
> 2025  4  1 15 17 43.9997001  0 23
G32  24013379.184   126191109.5811       2905.637          44.710    24013396.272    94233719.886        2170.059          24.250  
G01                                                                  23631304.488                        2365.567          22.079  
G02  21633811.624   113686452.486        1823.585          45.378                                                                  
G23  23105679.871   121421178.762       -3170.163          42.819    23105698.158    90671723.455       -2366.880          31.121  
G08  20244525.407   106385687.591         136.648          44.634    20244535.300    79443898.405         102.612          29.475  
G10  21074390.503   110746670.667        -802.574          46.928    21074406.692    82700519.120        -599.397          28.670  
G27  21046518.199   110600200.907       -2429.481          44.750    21046531.090    82591106.465       -1814.205          30.946  
E33                                                                  25975601.765   136502716.091        2290.837          42.596    25975620.652   101933918.841        1711.028          26.099  
E03                                                                  27635183.561   145223885.912       -1415.648          44.124    27635206.045   108446473.154       -1057.020          36.582  
E23                                                                  24970748.111   131222185.493       -1983.012          42.613    24970768.197    97990662.333       -1480.450          30.195  
E07                                                                  27418134.421   144083258.321        2880.595          39.170    27418161.702                        2149.687          20.439  
E08                                                                  26351365.829   138477359.343        1098.983          42.190    26351384.416                         818.947          15.107  
E26                                                                  23331313.268   122606889.239         329.992          41.651    23331327.358    91557155.173         247.068          26.441  
E13                                                                  24966098.330   131197698.103       -2090.011          42.823    24966110.921                       -1562.871          18.707  
E31                                                                  25572261.292   134383095.301         825.486          38.799    25572275.982   100351100.790         617.378          26.132  
C32  24223866.466   126140039.201        2974.937          41.685                                                                    24223885.353    95059714.592        2242.101          27.941  
C33  25574215.639   133171652.391       -2684.297          41.303                                                                    25574256.710   100358855.072       -2022.938          31.647  
C36                                                                                                                                  25534864.581                       -1972.003          21.128  
C41  23093863.851   120255790.824         -25.078          45.724                                                                    23093885.436    90625364.719         -20.904          26.009  
C27  22400220.550   116643838.738       -1948.779          42.607                                                                    22400235.839                       -1469.226          21.816  
C45  25342683.525   131966044.897        -545.201          35.603                                                                    25342698.515    99450178.830        -410.748          26.789  
C30  21764280.102   113332316.189         941.971          44.193                                                                    21764295.092    85407780.296         709.789          27.972  
R21  20471745.605   109548400.649       -2361.957          46.089  
> 2025  4  1 15 17 44.9997002  0 23
G32  24012795.188   126188046.852        3062.728          44.757    24012813.475    94231432.800        2286.374          27.819  
G01  23630646.144   124179927.6921       3326.140          39.263    23630669.828    92731815.7341       2483.988          28.638  
G02  21633431.487   113684471.015        1981.711          44.036                                                                  
G23  23106252.174   121424191.324       -3012.391          41.877    23106271.961    90673973.146       -2249.277          30.097  
G08  20244466.348   106385393.163         294.390          48.133    20244480.138    79443678.503         219.907          33.438  
G10  21074516.116   110747315.412        -644.777          47.801    21074529.007                        -480.145          25.835  
G27  21046945.403   110602473.280       -2272.227          45.619    21046962.491    82592803.162       -1696.812          28.811  
E33                                                                  25975137.686   136500267.172        2449.154          43.648    25975155.074   101932090.156        1828.973          29.434  
E03                                                                  27635415.600   145225143.392       -1257.575          41.494    27635444.380   108447412.254        -939.409          36.962  
E23                                                                  24971098.868   131224010.851       -1825.027          39.000    24971116.256    97992025.337       -1362.662          26.778  
E07                                                                                                                                  27417580.704   107592476.2351       2270.709          26.411  
E08                                                                                                                                  26351147.280   103407532.8421        938.394          25.839  
E26                                                                  23331227.527   122606401.458         487.908          43.348    23331235.921    91556790.989         363.920          26.206  
E13                                                                                                                                  24966477.267    97973819.5261      -1442.343          22.839  
E31                                                                  25572067.626   134382110.954         984.752          42.307    25572087.712   100350367.0041        738.908          22.167  
C32  24223265.982   126136908.626        3130.600          46.738                                                                    24223284.569    95057355.232        2359.171          25.013  
C33  25574703.701   133174180.441       -2527.897          41.808                                                                    25574742.974   100360760.154       -1905.110          33.722  
C36  25535310.372   132969036.4511      -2459.157          40.001                                                                    25535335.555                       -1852.713          26.884  
C41  23093833.572   120255659.932         130.876          40.656                                                                    23093860.253    90625265.955          98.949          28.913  
C27  22400568.309   116645631.660       -1792.763          46.563                                                                    22400581.200    87904675.2771      -1351.223          28.869  
C45                                                                                                                                  25342771.964                        -291.404          23.780  
C30  21764068.749   113331217.582        1098.826          44.766                                                                    21764084.938    85406952.222         827.783          27.629  
R21  20472165.015   109550602.193       -2201.544          43.251  
> 2025  4  1 15 17 45.9997004  0 23
G32  24012244.169   126185141.305        2906.374          45.337    24012260.958    94229263.130        2169.563          27.272  
G01  23630043.261   124176759.174        3169.237          38.350    23630066.945    92729449.800        2365.907          29.684  
G02  21633091.822   113682646.583        1825.447          45.438                                                                  
G23  23106853.558   121427360.910       -3168.819          42.954    23106875.443    90676340.048       -2366.451          28.833  
G08  20244440.266   106385256.147         137.771          47.995    20244453.756    79443576.230         102.321          33.877  
G10  21074670.809   110748117.586        -801.423          47.614    21074679.203                        -601.109          20.963  
G27  21047404.385   110604903.041       -2429.012          44.611    21047424.771    82594617.763       -1814.683          26.567  
E33                                                                  25974702.088   136497975.203        2292.849          43.942    25974718.577   101930378.707        1711.323          30.033  
E03                                                                  27635690.809   145226557.986       -1413.842          42.252    27635713.893   108448468.626       -1056.480          36.694  
E23                                                                  24971472.409   131225993.540       -1982.177          39.282    24971492.495    97993506.015       -1480.048          24.559  
E07                                                                  27417007.201   144077340.4281       2881.135          39.595    27417033.583                        2150.912          25.679  
E08                                                                  26350921.537   138475004.3181       1099.561          40.853    26350935.927   103406712.355         820.134          26.799  
E26                                                                  23331161.273   122606070.729         331.511          43.302    23331173.265    91556544.056         246.754          26.078  
E13                                                                  24966859.203   131201719.9111      -2088.415          42.411    24966875.392    97975379.942       -1560.208          22.776  
E31                                                                  25571911.434   134381283.576         828.079          41.216    25571928.522                         621.108          17.486  
C32  24222693.678   126133933.928        2975.337          46.730                                                                    24222713.764    95055113.595        2240.884          22.508  
C33  25575217.845   133176864.095       -2682.785          42.006                                                                    25575258.017   100362782.636       -2022.442          34.693  
C36  25535809.227   132971651.750       -2614.821          38.659                                                                    25535839.206   100208082.4141      -1970.577          27.275  
C41  23093838.968   120255685.039         -24.534          40.138                                                                    23093865.350    90625284.957         -18.931          28.319  
C27  22400941.851   116647580.320       -1948.055          46.780                                                                    22400954.442    87906143.766       -1468.073          29.379  
C45                                                                                                                                  25342876.891                        -410.220          23.248  
C30  21763893.670   113330274.674         943.954          45.044                                                                    21763903.563    85406241.778         710.110          28.373  
R21  20472597.316   109552963.771       -2360.739          43.079  
> 2025  4  1 15 17 46.9997005  0 23
G32  24011661.073   126182078.405        3062.901          45.065    24011679.660    94226975.742        2287.849          26.458  
G01  23629411.299   124173433.238        3325.974          38.355    23629434.383    92726966.062        2483.642          29.899  
G02  21632717.082   113680664.944        1981.690          45.753                                                                  
G23  23107427.361   121430373.137       -3012.221          43.239    23107447.747    90678589.444       -2249.353          28.205  
G08  20244382.406   106384962.149         293.794          47.759    20244397.695    79443356.646         219.513          34.232  
G10  21074792.225   110748762.736        -645.281          47.704    21074800.319                        -484.766          19.780  
G27  21047842.982   110607175.668       -2272.766          44.556    21047856.772    82596314.779       -1696.672          24.709  
E33                                                                  25974236.510   136495525.830        2449.418          44.165    25974253.598   101928549.566        1829.184          29.964  
E03                                                                  27635927.945   145227815.426       -1257.433          42.615    27635953.727   108449407.569        -939.054          36.622  
E23                                                                  24971821.668   131227819.026       -1825.700          39.289    24971841.454    97994869.181       -1363.388          23.878  
E07                                                                  27416428.601   144074302.469        3038.157          39.324    27416454.983   107588056.9011       2268.630          25.117  
E08                                                                  26350682.002   138473748.227        1256.063          41.712    26350697.292   103405774.246         938.299          26.052  
E26                                                                  23331067.738   122605582.710         487.897          43.283    23331080.629    91556179.518         364.733          26.565  
E13                                                                  24967224.650   131203651.777       -1931.771          42.403    24967245.036                       -1442.029          21.336  
E31                                                                  25571724.364   134380299.112         984.264          40.319    25571738.454                         738.842          14.705  
C32  24222093.494   126130803.328        3130.599          46.703                                                                    24222112.381                        2361.271          20.462  
C33  25575704.108   133179391.931       -2527.782          42.291                                                                    25575743.381   100364687.542       -1904.932          34.922  
C36  25536285.298   132974111.077       -2459.283          38.809                                                                    25536311.080   100209935.718       -1852.568          27.745  
C41  23093817.383   120255554.512         130.432          40.682                                                                    23093840.167    90625186.543          98.533          28.174  
C27  22401286.612   116649373.058       -1792.761          46.795                                                                    22401298.903    87907494.822       -1351.429          28.919  
C45                                                                                                                                  25342951.240    99451174.1021       -292.846          23.024  
C30  21763680.817   113329176.016        1098.654          45.095                                                                    21763692.809    85405413.713         828.117          28.235  
R21  20473008.331   109555165.267       -2201.289          43.010  
> 2025  4  1 15 17 47.9997007  0 23
G32  24011104.658   126179173.066        2905.368          45.377    24011125.044    94224806.302        2169.512          26.424  
G01  23628805.718   124170264.782        3168.377          37.975    23628830.901    92724600.047        2366.102          29.885  
G02  21632371.121   113678840.915        1823.955          45.452                                                                  
G23  23108028.445   121433543.014       -3170.000          42.428    23108051.229    90680956.536       -2366.883          28.308  
G08  20244358.422   106384826.042         135.917          48.220    20244371.913    79443255.011         101.585          34.435  
G10  21074946.918   110749565.779        -803.327          47.420    21074952.614                        -598.140          20.360  
G27  21048302.264   110609606.063       -2430.400          44.441    21048317.853    82598129.734       -1815.314          25.703  
E33                                                                  25973799.713   136493233.895        2291.992          43.953    25973817.400   101926838.027        1711.545          29.994  
E03                                                                  27636199.857   145229230.647       -1415.360          43.463    27636223.241   108450464.415       -1057.078          36.541  
E07                                                                  27415879.681   144071421.983        2880.501          40.059    27415905.164   107585906.020        2149.542          24.421  
E23                                                                  24972199.706   131229802.188       -1983.245          39.501    24972218.893    97996350.228       -1481.613          24.227  
E08                                                                  26350472.747   138472649.969        1098.122          41.178    26350488.636   103404954.167         820.331          25.960  
E26                                                                  23331004.781   122605252.261         330.395          43.381    23331016.174    91555932.775         247.322          26.391  
E13                                                                  24967620.676   131205741.149       -2089.465          42.841    24967642.261                       -1558.422          19.448  
E31                                                                  25571567.272   134379472.408         826.700          39.815    25571585.260                         617.157          16.651  
C32  24221521.490   126127828.907        2974.417          46.093                                                                    24221539.777    95050507.7951       2241.596          20.904  
C33  25576218.852   133182076.024       -2684.248          42.892                                                                    25576259.024   100366710.298       -2022.880          34.859  
C36  25536787.150   132976726.606       -2615.584          38.717                                                                    25536812.932   100211906.914       -1971.523          27.165  
C41  23093823.679   120255580.520         -26.325          40.678                                                                    23093845.563    90625206.150         -19.714          28.731  
C27  22401659.854   116651322.014       -1949.003          46.853                                                                    22401674.244    87908963.563       -1468.731          29.050  
C45                                                                                                                                  25343056.167    99451584.708        -410.512          22.389  
C30  21763500.342   113328233.600         942.286          45.189                                                                    21763511.734    85404703.511         709.877          28.544  
R21  20473440.332   109557527.422       -2362.260          42.802  
> 2025  4  1 15 17 48.9997009  0 23
G32  24010553.939   126176267.803        2905.083          45.277    24010571.627    94222636.805        2169.030          25.427  
G01  23628207.332   124167096.222        3168.541          39.191    23628228.618    92722233.890        2366.272          29.509  
G02  21632020.664   113677016.991        1823.757          46.129                                                                  
G23  23108633.726   121436713.074       -3170.127          43.111    23108654.112    90683323.800       -2367.403          28.423  
G08  20244331.141   106384690.355         135.421          47.550    20244346.131    79443153.658         101.401          34.461  
G10  21075100.412   110750369.225        -803.724          47.916    21075107.007                        -597.933          19.797  
G27  21048769.940   110612036.777       -2431.112          44.535    21048782.831    82599944.811       -1815.157          26.372  
E33                                                                  25973362.615   136490941.888        2291.897          44.363    25973380.603   101925126.454        1711.627          30.104  
E03                                                                  27636467.272   145230646.196       -1415.712          43.317    27636491.855   108451521.469       -1057.128          36.121  
E23                                                                  24972575.945   131231785.580       -1983.596          39.104    24972594.233    97997831.309       -1482.176          24.652  
E07                                                                  27415331.361   144068541.408        2880.571          39.909    27415357.743   107583754.778        2151.021          24.245  
E08                                                                  26350262.893   138471552.017        1097.849          41.534    26350279.381   103404134.339         819.292          26.214  
E26                                                                  23330941.825   122604921.935         330.194          43.300    23330953.517    91555686.122         246.899          26.350  
E13                                                                  24968018.800   131207830.536       -2089.556          42.888    24968038.886                       -1559.422          15.701  
E31                                                                  25571408.382   134378646.014         826.294          38.251                                                                  
C32  24220950.385   126124854.605        2974.116          46.372                                                                    24220969.871    95048266.4161       2240.544          20.787  
C33  25576733.596   133184760.361       -2684.454          42.795                                                                    25576774.368   100368733.232       -2022.848          35.047  
C36  25537290.502   132979342.165       -2615.743          39.473                                                                    25537315.684   100213877.927       -1971.073          27.758  
C41  23093824.578   120255606.964         -26.748          40.625                                                                    23093849.760    90625226.091         -20.478          28.422  
C27  22402030.997   116653271.140       -1949.277          46.456                                                                    22402048.385    87910432.461       -1469.236          29.278  
C45                                                                                                                                  25343160.795    99451995.856        -411.479          22.337  
C30  21763319.268   113327291.351         942.113          45.064                                                                    21763330.660    85403993.370         710.462          28.734  
R21  20473879.228   109559889.862       -2362.731          42.869  
> 2025  4  1 15 17 49.9997010  0 23
G32  24009974.141   126173205.310        3062.048          45.218    24009989.430    94220349.697        2287.384          25.844  
G01  23627571.173   124163770.351        3325.400          40.521    23627596.056    92719750.288        2483.404          29.618  
G02  21631647.422   113675035.876        1980.835          46.081                                                                  
G23  23109206.329   121439725.938       -3013.377          43.636    23109227.615    90685573.555       -2249.326          28.081  
G08  20244274.480   106384397.775         292.186          47.315    20244290.369    79442935.207         217.990          33.898  
G10                                                                  21075231.421                        -482.551          21.051  
G27  21049203.739   110614310.437       -2274.093          44.986    21049213.633    82601642.575       -1697.391          25.390  
E33                                                                  25972897.038   136488492.522        2449.047          44.485    25972914.126   101923297.397        1828.821          30.083  
E07                                                                  27414755.160   144065503.485        3037.460          39.958    27414780.642   107581486.040        2269.448          25.665  
E23                                                                  24972923.705   131233611.860       -1826.714          39.677    24972943.791    97999194.946       -1363.527          25.034  
E08                                                                  26350023.658   138470297.043        1254.331          41.749    26350040.447   103403197.145         936.818          26.095  
E26                                                                  23330847.690   122604434.385         487.100          42.820    23330862.680    91555322.040         363.641          25.892  
E13                                                                  24968387.545   131209762.581       -1932.396          42.442    24968406.432                       -1442.463          13.408  
E31                                                                  25571223.410   134377662.627         982.937          38.589    25571247.394                         733.812          14.926  
C32                                                                                                                                  24220368.788    95045907.542        2358.954          21.170  
C33  25577220.159   133187288.975       -2528.990          42.988                                                                    25577260.031   100370638.791       -1905.983          34.938  
C36  25537760.276   132981801.946       -2460.297          39.305                                                                    25537786.658   100215731.563       -1853.632          27.327  
C41  23093800.295   120255477.900         128.583          40.664                                                                    23093826.377    90625128.738          97.329          27.867  
C27  22402377.557   116655064.478       -1793.579          46.533                                                                    22402393.746    87911783.849       -1351.308          29.469  
C45  25343220.454                        -384.545          27.017                                                                    25343235.743    99452289.455        -293.925          23.455  
C29                                                                                                                                  25399336.805                        -117.655          11.000  
C30  21763108.214   113326193.415        1097.692          45.210                                                                    21763119.906    85403165.977         827.518          28.332  
R21  20474311.229   109562092.248       -2202.775          43.672  
> 2025  4  1 15 17 50.9997012  0 23
G32  24009416.827   126170300.627        2904.522          45.718    24009436.613    94218180.700        2169.037          26.227  
G01  23626971.588   124160602.229        3167.987          40.642    23626993.473    92717384.512        2365.808          29.548  
G02  21631293.967   113673212.673        1823.062          46.026                                                                  
G23  23109809.212   121442896.566       -3170.654          43.483    23109830.497    90687941.343       -2368.065          28.007  
G08  20244249.598   106384263.359         134.254          47.278    20244264.587    79442834.889          99.704          33.709  
G10  21075373.822   110751820.4361       -804.807          48.127    21075384.315    82704327.8531       -601.464          22.403  
G27  21049663.621   110616742.148       -2431.868          45.300    21049676.512    82603458.573       -1815.671          26.006  
E33                                                                  25972460.540   136486200.896        2291.451          44.225    25972477.628   101921586.146        1711.011          30.327  
E23                                                                  24973300.544   131235596.150       -1984.499          39.660    24973320.630    98000676.824       -1482.026          24.708  
E07                                                                  27414207.139   144062623.224        2880.051          40.514    27414233.821   107579335.320        2150.812          23.981  
E08                                                                  26349815.602   138469200.013        1096.898          41.141    26349831.491   103402377.874         819.366          25.073  
E26                                                                  23330785.933   122604104.658         329.755          42.878    23330800.323    91555075.792         246.913          25.770  
E13                                                                  24968786.569   131211852.285       -2089.705          42.789    24968802.158                       -1558.012          17.604  
E31                                                                  25571066.319   134376837.265         825.054          38.580    25571091.202                         616.700          13.137  
C32  24219778.796   126118750.9061       2973.526          46.406                                                                    24219796.784    95043666.651        2240.979          23.100  
C33  25577736.102   133189974.016       -2685.216          43.052                                                                    25577775.674   100372662.272       -2023.869          34.911  
C36  25538261.230   132984418.114       -2616.308          38.843                                                                    25538289.710   100217703.180       -1971.455          27.475  
C41  23093806.890   120255505.549         -27.680          40.780                                                                    23093830.874    90625149.636         -20.851          28.170  
C27  22402753.197   116657014.267       -1949.800          46.764                                                                    22402767.287    87913253.208       -1468.855          29.593  
C45  25343330.178   131969379.3841       -547.132          29.230                                                                    25343340.371    99452701.378        -412.296          22.528  
C29                                                                                                                                  25312211.421                        -235.300          11.000  
C30  21762928.938   113325251.962         941.281          44.998                                                                    21762938.531    85402456.556         709.126          28.736  
R21  20474754.922   109564455.445       -2363.185          43.874  
> 2025  4  1 15 17 51.9997013  0 23
G32  24008832.231   126167238.454        3062.618          45.062    24008853.816    94215893.996        2287.508          26.352  
G01  23626336.328   124157277.083        3324.970          39.737    23626360.611    92714901.482        2482.831          29.913  
G02  21630920.126   113671232.546        1979.881          45.729                                                                  
G23  23110384.514   121445910.006       -3013.424          43.395    23110404.300    90690191.594       -2250.138          28.063  
G08  20244195.035   106383972.198         290.923          47.214    20244209.425    79442617.436         217.074          33.981  
G10  21075499.136   110752468.128        -647.628          47.807    21075506.930    82704811.469        -483.951          22.418  
G27  21050097.121   110619016.750       -2274.322          45.199    21050111.811    82605157.096       -1697.890          27.252  
E33                                                                  25971993.163   136483752.229        2448.432          43.988    25972012.350   101919757.579        1828.590          30.185  
E07                                                                  27413627.640   144059585.340        3038.277          40.398    27413654.922                        2268.246          23.787  
E23                                                                  24973648.603   131237423.507       -1827.605          39.015    24973665.691    98002041.376       -1364.875          25.048  
E08                                                                  26349576.967   138467945.854        1254.164          41.600    26349593.456   103401441.343         936.739          25.328  
E26                                                                  23330692.997   122603617.893         486.542          42.941    23330706.788    91554712.356         363.317          25.865  
E13                                                                  24969154.114   131213784.599       -1932.246          42.857    24969169.404                       -1442.349          17.000  
E31                                                                  25570879.249   134375855.228         981.629          37.775    25570900.534                         734.059          16.549  
C32  24219177.113   126115621.404        3129.754          46.117                                                                    24219196.000    95041308.372        2358.291          24.115  
C33  25578220.267   133192503.410       -2529.498          43.019                                                                    25578261.338   100374568.409       -1906.278          34.860  
C36  25538735.501   132986878.823       -2460.829          38.852                                                                    25538764.581   100219557.625       -1854.555          27.300  
C41  23093784.706   120255377.683         127.778          41.459                                                                    23093805.991    90625053.197          96.760          29.007  
C27  22403097.059   116658808.208       -1793.811          46.593                                                                    22403111.748    87914605.160       -1351.688          29.698  
C29                                                                                                                                  25311601.943                        2330.105          21.061  
C45  25343406.325   131969770.738        -391.974          30.033                                                                    25343415.918    99452996.330        -295.672          23.473  
C30  21762715.486   113324154.986        1096.836          44.765                                                                    21762727.777    85401629.891         826.455          29.040  
R21  20475135.059   109566658.535       -2202.822          43.004  
> 2025  4  1 15 17 52.9997015  0 23
G32  24008285.110   126164332.502        2907.624          45.620    24008299.800    94213724.038        2171.850          26.218  
G01  23625735.544   124154110.983        3164.603          38.208    23625757.129    92712537.247        2362.819          29.760  
G02  21630568.169   113669411.290        1819.981          44.033                                                                  
G23  23110988.596   121449080.911       -3170.749          43.754    23111008.082    90692559.462       -2367.645          27.507  
G08  20244169.853   106383839.607         131.752          47.960    20244183.643    79442518.433          98.494          33.859  
G10  21075648.732   110753273.402        -805.108          47.874    21075660.424    82705412.817        -601.161          21.294  
G27  21050557.302   110621448.579       -2431.227          44.461    21050574.091    82606973.158       -1815.173          26.280  
E33                                                                  25971559.064   136481462.488        2288.110          42.521    25971576.152   101918047.719        1708.981          29.862  
E07                                                                  27413081.718   144056703.466        2883.696          40.086    27413105.102                        2152.769          22.311  
E23                                                                  24974027.840   131239409.310       -1986.586          40.512    24974046.128    98003524.237       -1482.992          26.160  
E08                                                                  26349367.413   138466848.652        1098.001          41.455    26349383.302   103400622.012         820.468          24.512  
E26                                                                  23330630.341   122603289.247         327.835          42.897    23330644.131    91554466.923         244.675          25.581  
E13                                                                  24969553.438   131215873.756       -2088.476          43.220                                                                  
E31                                                                  25570721.258   134375032.743         820.603          37.492    25570745.241                         617.691          18.564  
C32  24218606.008   126112647.188        2975.492          45.768                                                                    24218625.195    95039066.993        2242.111          25.286  
C33  25578736.509   133195189.203       -2685.978          42.765                                                                    25578777.281   100376592.459       -2024.133          34.423  
C36  25539237.354   132989497.156       -2619.764          39.132                                                                    25539265.834   100221530.843       -1974.295          26.441  
C41  23093784.406   120255405.575         -27.259          41.450                                                                    23093810.787    90625074.292         -20.442          28.314  
C27  22403474.198   116660757.545       -1948.535          46.315                                                                    22403485.889    87916074.247       -1468.441          29.416  
C45  25343509.753   131970320.603        -552.138          32.111                                                                    25343521.445    99453410.753        -416.271          24.863  
C29                                                                                                                                  25311040.132                        2211.693          21.352  
C30  21762533.212   113323215.110         938.727          44.636                                                                    21762547.002    85400921.638         707.255          29.343  
R21  20475608.131   109569021.633       -2362.094          43.308  
> 2025  4  1 15 17 53.9997017  0 23
G32  24007727.796   126161422.524        2911.176          45.633    24007747.582    94211551.082        2173.243          26.577  
G01  23625133.261   124150948.212        3161.208          39.053    23625156.644    92710175.340        2361.109          29.587  
G02  21630221.909   113667592.948        1816.784          43.312                                                                  
G23  23111591.478   121452251.042       -3170.288          43.765    23111611.264    90694926.810       -2367.410          27.940  
G08  20244144.670   106383708.640         129.877          47.876    20244159.060    79442420.592          97.434          33.411  
G10  21075805.224   110754077.822        -804.605          48.295    21075814.817    82706013.5161       -601.471          20.725  
G27  21051028.276   110623878.700       -2429.915          45.142    21051034.272    82608787.831       -1814.106          27.977  
E33                                                                  25971123.166   136479175.826        2285.375          41.580    25971142.052   101916340.156        1706.738          29.425  
E23                                                                  24974405.279   131241396.862       -1988.627          40.718    24974422.967                       -1484.097          25.650  
E07                                                                  27412531.299   144053817.324        2887.176          39.714    27412556.182                        2155.555          22.791  
E08                                                                  26349158.457   138465749.197        1099.810          41.332    26349176.145   103399801.018         820.971          23.746  
E26                                                                  23330568.883   122602961.575         326.990          42.569    23330583.873                         244.576          25.291  
E13                                                                  24969950.063   131217960.920       -2086.979          43.085    24969963.854                       -1559.689          14.663  
E31                                                                  25570565.366   134374214.596         816.250          36.404    25570586.651                         610.535          19.142  
C32  24218035.503   126109670.346        2977.412          45.443                                                                    24218052.891    95036823.629        2244.132          25.506  
C33  25579255.450   133197875.187       -2686.379          43.310                                                                    25579292.624   100378616.635       -2024.453          34.253  
C36  25539742.804   132992118.828       -2623.109          39.918                                                                    25539769.485   100223506.514       -1976.698          26.057  
C41  23093794.599   120255431.811         -26.121          41.816                                                                    23093815.284    90625094.030         -19.542          28.116  
C27  22403848.339   116662704.661       -1946.772          45.922                                                                    22403859.131    87917541.595       -1467.354          29.702  
C45  25343617.679                        -555.446          31.690                                                                    25343628.171    99453828.670        -419.399          24.951  
C29                                                                                                                                  25310479.520                        2208.428          23.517  
C30  21762351.837   113322277.061         936.884          44.534                                                                    21762367.427    85400214.620         706.215          28.887  
R21  20476028.740   109571382.867       -2360.932          43.996  
> 2025  4  1 15 17 54.9997018  0 23
G32  24007142.301   126158352.156        3073.942          45.242    24007163.586                        2295.314          26.968  
G01  23624502.497   124147630.440        3313.637          40.892    23624524.682    92707698.006        2474.146          28.370  
G02  21629847.168   113665619.281        1970.332          42.813                                                                  
G23  23112165.881   121455263.060       -3010.582          44.224    23112183.868                       -2248.353          27.489  
G08  20244091.607   106383421.308         285.985          47.598    20244104.798                         212.903          32.825  
G10                                                                  21075938.631                        -482.377          24.190  
G27  21051452.183   110626150.128       -2269.890          44.523    21051467.472    82610483.974       -1694.393          28.636  
E33                                                                  25970657.888   136476734.000        2437.825          40.679    25970677.374                        1821.201          29.208  
E23                                                                  24974754.537   131243228.208       -1833.914          42.404    24974772.825    98006375.9671      -1368.572          26.727  
E07                                                                  27411951.501   144050770.558        3050.760          39.201    27411976.384   107570484.5761       2276.884          22.145  
E08                                                                  26348918.024   138464490.638        1261.298          41.242    26348935.711                         940.338          24.535  
E26                                                                  23330476.847   122602477.116         483.712          42.488    23330490.637                         362.670          25.538  
E13                                                                  24970315.210   131219888.961       -1925.266          43.161                                                                  
E31                                                                                                                                  25570399.581                         724.227          22.472  
C32  24217433.819   126106535.577        3136.069          44.994                                                                    24217449.409                        2364.205          25.267  
C33  25579737.816   133200405.315       -2529.947          43.553                                                                    25579778.888   100380523.315       -1906.526          34.221  
C36  25540217.675   132994586.919       -2471.979          41.008                                                                    25540243.158   100225366.698       -1863.213          25.140  
C41  23093767.318   120255300.653         133.578          42.997                                                                    23093791.601                         100.412          28.644  
C27  22404188.303   116664493.948       -1786.988          45.258                                                                    22404204.192    87918890.048       -1347.002          29.121  
C45  25343699.822                        -403.118          32.934                                                                    25343705.218    99454132.044        -306.085          24.635  
C29                                                                                                                                  25309887.130    99321438.4891       2322.389          23.018  
C30  21762146.180   113321184.169        1091.125          44.642                                                                    21762158.771    85399391.301         821.995          28.687  
R21  20476452.347   109573582.242       -2197.006          44.744  
> 2025  4  1 15 17 55.9997020  0 23
G32  24006588.884   126155423.151        2944.167          42.758    24006606.272    94207071.6181       2195.212          25.767  
G01  23623902.013   124144483.006        3135.912          39.774    23623924.797                        2355.314          24.812  
G02  21629503.906   113663813.320        1795.756          41.274                                                                  
G23  23112766.365   121458427.972       -3160.987          43.880    23112785.552                       -2361.107          22.887  
G08  20244070.921   106383295.765         121.162          45.095    20244080.515    79442112.2731         90.885          28.374  
G10  21076079.234   110755522.0751       -793.287          49.431    21076090.626    82707089.8231       -592.831          24.945  
G27  21051916.262   110628570.948       -2413.545          44.488    21051929.752    82612291.812       -1802.271          30.540  
E33                                                                  25970225.887   136474461.576        2260.885          40.366    25970243.275   101912819.6401       1688.787          26.482  
E07                                                                  27411400.183   144047864.632        2922.196          38.667    27411425.365                        2170.681          22.028  
E23                                                                  24975133.775   131245222.559       -1999.492          44.463    24975149.664                       -1491.837          24.548  
E08                                                                  26348707.569   138463378.904        1121.755          41.894    26348723.758                         837.877          25.116  
E26                                                                  23330413.891   122602152.949         321.064          40.934    23330428.580                         240.436          22.599  
E13                                                                  24970709.737   131221965.784       -2068.886          42.622    24970724.727                       -1551.398          19.955  
E31                                                                  25570230.198   134372442.3561        785.037          41.126    25570246.687                         587.214          27.237  
C32  24216859.417   126103545.932        2999.596          43.212                                                                    24216875.906                        2259.423          26.637  
C33  25580254.059   133203090.306       -2684.303          45.020                                                                    25580294.531   100382546.648       -2022.758          34.071  
C36  25540722.826   132997223.593       -2647.642          40.768                                                                    25540746.809                       -1984.577          20.578  
C41  23093772.714   120255316.698          -7.655          45.868                                                                    23093795.498    90625007.4841         -6.754          25.123  
C27  22404561.845   116666429.304       -1926.053          43.730                                                                    22404576.834    87920348.528       -1451.019          27.970  
C45  25343806.848                        -575.603          34.467                                                                    25343813.743                        -428.485          23.371  
C29                                                                                                                                  25309324.719                        2203.339          20.179  
C30  21761968.103   113320253.193         925.135          41.739                                                                    21761979.195                         697.630          25.893  
R21  20476888.545   109575933.077       -2342.963          46.753  
> 2025  4  1 15 17 56.9997021  0 23
G32  24005994.995                        3078.027          42.901    24006009.985                        2308.277          24.375  
G01  23623281.443   124141208.479        3258.464          36.799    23623303.927    92702902.2981       2432.876          23.684  
G02  21629136.061   113661873.906        1924.536          42.153                                                                  
G23  23113337.170   121461424.044       -2990.884          43.551    23113357.256                       -2238.201          21.813  
G08  20244010.063   106383022.749         265.672          45.559    20244027.751                         200.675          25.507  
G10  21076197.652   110756149.129        -622.091          46.907    21076210.843    82707558.012        -464.178          23.700  
G27  21052341.367   110630815.335       -2236.259          43.082    21052355.458    82613967.909       -1669.634          29.460  
E33                                                                  25969769.303   136472060.152        2385.096          40.466    25969788.190   101911026.546        1782.473          24.679  
E23                                                                  24975486.930   131247072.625       -1858.673          41.799    24975504.918                       -1388.028          24.550  
E07                                                                  27410807.493   144044761.503        3123.447          38.579    27410840.470   107566032.0921       2291.357          20.251  
E08                                                                  26348459.941   138462083.759        1307.795          41.749    26348479.427                         976.959          26.215  
E26                                                                  23330323.053   122601678.421         468.749          40.368    23330337.743    91553264.2331        351.783          21.518  
E13                                                                                                                                  24971095.270                       -1427.187          24.990  
E31                                                                  25570053.920   134371520.379         901.855          40.067    25570071.608   100342445.4711        674.687          24.864  
C32  24216249.639   126100374.474        3183.359          42.703                                                                    24216268.226                        2398.553          27.459  
C33  25580739.123   133205615.551       -2523.788          44.713                                                                    25580778.695   100384449.667       -1901.531          32.272  
C36  25541205.192   132999733.436       -2525.686          36.567                                                                    25541224.079                       -1865.995          17.885  
C41  23093740.636   120255155.244         171.030          42.439                                                                    23093764.020                         131.025          23.265  
C27  22404899.711   116668184.887       -1745.055          44.034                                                                    22404912.002                       -1314.663          26.162  
C29                                                                                                                                  25308736.526                        2321.996          15.376  
C45  25343889.890                        -416.101          35.125                                                                    25343893.787                        -312.247          18.039  
C30  21761762.146   113319179.900        1064.234          40.086                                                                    21761773.238                         802.073          25.108  
R21  20477291.766   109578102.120       -2159.833          43.843  
> 2025  4  1 15 17 57.9997023  0 23
G32  24005416.096                        3021.822          38.824    24005437.382                        2252.199          22.351  
G01  23622693.849   124138120.032        3078.135          36.953    23622714.535                        2307.477          20.353  
G02  21628800.593   113660113.916        1753.242          42.136                                                                  
G23  23113934.956   121464566.121       -3135.957          44.429    23113955.941                       -2342.762          27.702  
G08  20243996.573   106382915.408         107.472          44.208    20244008.864                          80.620          29.477  
G10  21076344.550   110756919.327        -761.148          47.907    21076356.542    82708133.435        -569.098          22.427  
G27  21052794.654   110633197.832       -2371.484          44.824    21052809.943                       -1771.374          32.184  
E33                                                                  25969346.895   136469842.590        2208.577          41.178    25969366.981                        1649.632          22.795  
E23                                                                  24975870.065   131249091.890       -2021.848          38.498    24975888.352                       -1509.635          30.060  
E07                                                                  27410240.585   144041778.161        2996.460          37.242    27410283.755                        2174.206          15.701  
E08                                                                  26348238.994   138460920.672        1175.252          40.207    26348258.180   103396195.9681        875.441          23.908  
E26                                                                  23330265.193   122601366.470         313.353          42.562    23330277.785                         232.827          25.710  
E13                                                                  24971457.720   131225898.9491      -2023.778          42.081    24971487.099    97993485.8751      -1548.161          19.846  
E31                                                                  25569914.517   134370788.808         719.849          36.710    25569934.003   100341898.921         538.461          23.858  
C32  24215664.744   126097333.797        3052.699          42.213                                                                    24215683.031                        2302.016          29.748  
C33  25581253.267   133208292.906       -2674.608          41.192                                                                    25581293.139   100386467.588       -2016.558          30.765  
C36  25541720.235   133002426.548       -2703.305          37.763                                                                    25541734.625                       -1985.527          15.432  
C41  23093732.242   120255128.340          38.660          43.674                                                                    23093756.525    90624865.1741         29.937          23.805  
C27  22405261.560   116670072.498       -1874.553          40.390                                                                    22405274.451                       -1414.132          24.540  
C45                                                                                                                                  25344008.608                        -430.441          16.657  
C29                                                                                                                                  25308179.512                        2194.709          11.000  
C30  21761586.167   113318274.363         903.575          42.944                                                                    21761599.058    85397198.2321        681.365          29.222  
R21  20477718.970   109580410.014       -2296.342          44.519  
> 2025  4  1 15 17 58.9997024  0 23
G32  24004810.515                        3200.005          37.121    24004833.300                        2373.329          24.143  
G01  23622077.776   124134886.670        3230.175          37.757    23622094.564                        2425.026          20.125  
G02  21628438.144   113658198.575        1918.398          44.585                                                                  
G23  23114500.964   121467537.699       -2964.846          43.305    23114519.851                       -2214.352          30.203  
G08  20243946.507   106382640.426         283.624          45.389    20243956.401    79441619.9801        211.948          27.654  
G10  21076458.471   110757508.619        -576.308          47.118    21076466.566                        -430.833          23.642  
G27  21053215.262   110635395.790       -2183.837          43.064    21053228.153                       -1630.549          33.656  
E33                                                                  25968898.406   136467476.623        2365.196          41.537    25968914.295                        1765.979          24.464  
E23                                                                  24976223.220   131250949.522       -1852.624          39.806    24976242.407                       -1383.359          31.930  
E07                                                                  27409636.803                        3182.580          35.291    27409701.858                        2284.782          14.988  
E08                                                                  26347981.772   138459577.035        1354.119          40.103    26348003.357                        1003.236          20.327  
E26                                                                  23330174.057   122600884.705         491.348          40.875    23330188.147                         356.796          22.360  
E13                                                                  24971813.273   131227752.223       -1841.165          42.189    24971848.949                       -1428.860          16.578  
E31                                                                  25569748.731   134369913.293         872.997          35.611    25569770.616                         645.332          23.225  
C32  24215045.073   126094109.968        3236.284          42.940                                                                    24215063.660                        2438.963          29.174  
C33  25581734.134   133210808.646       -2512.412          41.563                                                                    25581776.405   100388363.303       -1893.402          29.892  
C36  25542216.092                       -2552.868          36.356                                                                                                                                  
C41  23093693.868   120254919.474         222.405          44.318                                                                    23093717.552    90624707.781         168.581          23.588  
C27  22405588.634   116671775.502       -1687.825          37.949                                                                    22405598.527    87924377.4881      -1272.675          23.179  
C29                                                                                                                                  25307590.420                        2310.582          11.000  
C45                                                                                                                                  25344095.548                        -324.743          16.098  
C30  21761381.109   113317205.551        1076.243          43.763                                                                    21761393.701                         811.454          29.982  
R21  20478117.694   109582531.529       -2108.442          44.917  
> 2025  4  1 15 17 59.9997026  0 23
G32  24004228.918                        3065.859          38.775    24004256.799                        2262.833          23.542  
G01  23621494.380   124131815.054        3073.040          40.559    23621500.076                        2318.771          17.582  
G02  21628099.079   113656433.930        1772.060          44.231                                                                  
G23  23115093.354   121470654.292       -3110.636          41.294    23115113.440                       -2323.256          29.396  
G08  20243914.130   106382506.382         144.905          44.382    20243930.618                         108.251          30.441  
G10  21076591.879   110758231.306        -710.756          46.030    21076603.871    82709113.2471       -531.111          21.614  
G27  21053654.758   110637725.269       -2318.006          41.954    21053672.146                       -1731.504          34.661  
E33                                                                  25968476.898   136465268.551        2211.908          41.520    25968491.887   101905955.0221       1651.775          26.434  
E23                                                                  24976605.756   131252955.114       -1998.529          41.718    24976623.144    98013639.6041      -1492.466          31.670  
E07                                                                  27409059.403                        3046.443          36.035                                                                  
E08                                                                  26347754.529   138458371.786        1212.480          38.632    26347783.009                         882.877          16.617  
E26                                                                  23330107.203   122600541.916         354.666          39.380    23330125.190                         251.259          22.910  
E13                                                                  24972191.012   131229740.686       -1978.849          41.020                                                                  
E31                                                                  25569610.527   134369197.887         719.876          40.733    25569633.611                         534.842          25.387  
C32  24214452.084   126091019.630        3098.786          43.975                                                                    24214469.771                        2335.928          27.469  
C33  25582247.079   133213473.798       -2661.406          41.964                                                                    25582288.750                       -2004.856          28.796  
C36  25542732.934   133007694.6781      -2711.726          37.107                                                                                                                                  
C41  23093683.076   120254842.587          87.597          43.575                                                                    23093702.862                          62.407          21.869  
C27  22405937.592   116673607.842       -1820.940          39.143                                                                    22405952.582                       -1372.030          25.903  
C45                                                                                                                                  25344248.442                        -442.445          11.047  
C29                                                                                                                                  25307081.672                        2194.690          11.255  
C30  21761201.833   113316278.252         937.677          43.820                                                                    21761215.924                         707.443          28.210  
R21  20478540.401   109584789.058       -2246.747          44.497  
> 2025  4  1 15 18  0.9997028  0 23
G32  24003645.522   126140002.0261       3064.561          39.667    24003680.298                        2258.987          22.211  
G01  23620907.686   124128734.425        3086.045          42.980                                                                  
G02  21627760.613   113654650.558        1792.196          42.364                                                                  
G23  23115686.044   121473761.796       -3105.387          41.461    23115704.331                       -2314.386          24.223  
G08  20243887.149   106382349.867         165.555          43.282    20243900.339                         123.096          29.634  
G10  21076725.886   110758933.842        -696.277          44.535    21076739.077                        -525.339          23.926  
G27  21054095.753   110640036.240       -2305.808          42.252    21054111.042                       -1722.019          31.424  
E33                                                                  25968055.689   136463047.959        2227.742          38.370    25968072.777                        1663.178          29.718  
E23                                                                  24976983.194   131254944.817       -1982.668          43.351    24977002.081                       -1480.748          29.436  
E07                                                                  27408482.303   144032550.4121       3038.802          37.535                                                                  
E08                                                                  26347523.689   138457157.511        1215.579          38.427                                                                  
E26                                                                  23330037.651   122600175.771         375.334          42.098    23330059.536                         250.478          17.859  
E13                                                                  24972566.052   131231714.256       -1969.900          41.152                                                                  
E31                                                                  25569474.121   134368468.282         737.567          43.745    25569496.606                         541.609          23.479  
C32  24213856.096   126087917.860        3103.766          42.574                                                                    24213872.885                        2341.535          23.885  
C33  25582758.225   133216132.338       -2656.644          42.735                                                                    25582798.397   100392375.0371      -2002.597          25.103  
C36  25543252.474   133010400.538       -2701.307          38.584                                                                    25543281.854                       -2014.566          11.000  
C41  23093663.889   120254749.573          97.032          42.864                                                                    23093685.474                          73.580          26.092  
C27  22406288.050   116675422.821       -1810.670          43.767                                                                    22406301.540    87927125.7261      -1364.103          27.008  
C45                                                                                                                                  25344377.053                        -503.592          12.703  
C29                                                                                                                                  25306555.536                        2121.920          22.054  
C30  21761019.260   113315328.519         958.848          40.486                                                                    21761032.751    85394977.9361        722.742          24.341  
R21  20478959.811   109587029.974       -2236.591          44.124  
> 2025  4  1 15 18  1.9997029  0 22
G32  24003035.444   126136781.610        3220.049          40.856    24003074.717    94193224.5571       2375.048          20.370  
G01  23620288.315   124125483.611        3257.777          41.205                                                                  
G02  21627387.671   113652690.651        1970.596          41.906                                                                  
G23  23116246.955   121476706.932       -2942.807          40.549    23116266.742                       -2198.470          21.888  
G08  20243823.593   106382016.543         343.968          44.872    20243837.983                         255.998          28.014  
G10  21076829.315   110759465.778        -524.894          44.676    21076843.105                        -402.480          20.470  
G27  21054504.370   110642178.762       -2135.693          40.868    21054518.160    82622453.5331      -1596.080          28.957  
E33                                                                  25967598.506   136460654.756        2401.707          38.133    25967617.992   101902509.9401       1792.619          28.123  
E07                                                                  27407874.024   144029356.719        3192.267          37.442                                                                  
E23                                                                  24977330.354   131256762.395       -1809.263          44.653    24977347.442    98016482.8221      -1351.651          25.599  
E26                                                                  23329934.522   122599632.443         553.892          42.822    23329966.600                         367.901          17.988  
E13                                                                  24972910.814   131233522.621       -1804.411          41.081                                                                  
E31                                                                  25569301.141   134367563.659         913.990          41.739    25569325.424                         672.802          23.763  
C32  24213230.130   126084656.056        3264.736          41.099                                                                    24213249.616    95017973.0951       2459.934          23.846  
C33  25583237.893   133218630.531       -2496.473          42.867                                                                    25583277.166                       -1880.279          20.214  
C36  25543740.536   133012939.798       -2533.069          41.198                                                                                                                                  
C41  23093612.325   120254491.939         262.056          43.373                                                                    23093636.608    90624384.5421        197.488          25.103  
C27  22406607.029   116677072.338       -1644.399          43.973                                                                    22406618.721    87928368.888       -1239.476          26.880  
C45  25344478.683                        -491.881          40.069                                                                    25344492.173                        -385.947          18.579  
C29                                                                                                                                  25305977.836                        2253.577          25.702  
C30  21760803.109   113314202.647        1136.365          41.153                                                                    21760816.900    85394129.674         855.738          23.329  
R21  20479347.143   109589101.543       -2066.849          45.013  
> 2025  4  1 15 18  2.9997031  0 22
G32  24002452.648   126133723.449        3053.450          40.442    24002486.824                        2256.961          19.562  
G01  23619698.023   124122378.755        3111.476          38.029                                                                  
G02  21627041.411   113650872.216        1827.083          40.532                                                                  
G23  23116835.148   121479805.881       -3097.753          40.918    23116856.733                       -2313.318          23.544  
G08  20243787.318   106381825.133         198.556          45.489    20243800.509                         148.454          26.535  
G10                                                                  21076981.309                        -565.622          22.169  
G27  21054940.568   110644471.879       -2291.435          40.506    21054954.658                       -1711.741          24.992  
E33                                                                  25967172.800   136458406.135        2256.217          41.279    25967188.989   101900830.857        1684.097          25.997  
E23                                                                  24977703.596   131258725.589       -1957.486          43.668    24977720.684    98017948.471       -1460.922          21.269  
E07                                                                  27407297.223   144026326.759        3024.281          35.659                                                                  
E26                                                                  23329859.574   122599230.788         409.235          42.634    23329908.440                         229.601          14.194  
E13                                                                  24973281.357   131235483.286       -1959.813          40.936                                                                  
E31                                                                  25569156.641   134366800.593         772.607          42.426    25569181.224                         567.544          23.342  
C32  24212633.842   126081549.413        3104.941          41.356                                                                    24212652.729    95015631.781        2340.316          23.846  
C33  25583746.641   133221280.996       -2648.719          42.907                                                                    25583788.612                       -1998.808          15.162  
C36  25544254.081   133015625.719       -2680.011          39.231                                                                                                                                  
C41  23093591.939   120254384.865         107.857          42.554                                                                    23093616.522    90624303.796          81.852          24.280  
C27  22406950.891   116678872.100       -1798.908          44.357                                                                    22406963.782    87929725.155       -1355.516          26.266  
C45  25344602.497                        -643.026          42.019                                                                    25344622.283                        -518.493          18.324  
C29                                                                                                                                  25305432.514                        2146.006          25.355  
C30  21760614.840   113313216.204         994.524          43.992                                                                    21760628.031                         743.483          20.523  
R21  20479765.353   109591327.591       -2224.896          44.324  
> 2025  4  1 15 18  3.9997033  0 22
G32  24001876.447   126130673.078        3049.134          36.957    24001888.139                        2276.712          20.957  
G01  23619106.533   124119263.241        3116.093          39.834                                                                  
G02  21626692.153   113649039.007        1834.914          42.999                                                                  
G23  23117424.540   121482901.267       -3092.736          41.255    23117445.825    90717824.0071      -2309.590          24.017  
G08  20243745.647   106381620.785         206.068          43.366    20243762.135    79440858.4011        153.683          25.460  
G10  21077085.937   110760818.8931       -671.126          44.970    21077136.902                        -564.538          16.837  
G27  21055377.066   110646761.876       -2289.869          41.094    21055391.156                       -1709.149          22.324  
E33                                                                  25966740.200   136456145.480        2261.371          44.342    25966757.888                        1692.890          22.686  
E07                                                                  27406721.322   144023305.881        3019.464          33.120                                                                  
E23                                                                  24978075.038   131260679.485       -1953.872          42.855    24978093.626                       -1461.437          20.189  
E26                                                                  23329778.630   122598815.877         417.413          43.791                                                                  
E13                                                                  24973656.697   131237440.844       -1955.685          38.977                                                                  
E31                                                                  25569005.846   134366021.346         781.696          41.006                                                                  
C32  24212038.754   126078445.751        3102.228          41.566                                                                    24212055.843    95013292.687        2338.818          25.308  
C33  25584255.089   133223926.995       -2643.463          42.692                                                                    25584303.955                       -2018.130          11.000  
C36  25544772.422   133018302.642       -2676.959          38.849                                                                                                                                  
C41  23093570.954   120254274.865         111.740          41.530                                                                    23093595.536                          84.265          24.534  
C27  22407295.052   116680669.359       -1796.245          42.383                                                                    22407310.042                       -1350.891          24.286  
C29  25304867.105   131769083.1141       2855.676          44.721                                                                    25304885.392                        2149.816          24.800  
C45  25344727.510                        -633.047          43.448                                                                                                                                  
C30                                                                                                                                  21760475.436                         742.367          21.180  
R21  20480172.771   109593550.172       -2220.857          42.251  
> 2025  4  1 15 18  4.9997035  0 21
G32                                                                  24001307.441                        2274.227          21.288  
G01  23618511.445   124116145.590        3118.863          41.965                                                                  
G02  21626345.293   113647202.200        1836.999          47.544                                                                  
G23  23118013.632   121485993.985       -3093.679          42.437    23118033.718    90720133.605       -2310.093          25.558  
G08  20243708.472   106381414.027         205.667          43.651    20243723.162    79440703.8271        155.281          21.880  
G10  21077215.747   110761491.009        -674.853          43.702    21077278.404                        -565.137          14.555  
G27  21055813.863   110649053.987       -2295.549          42.535    21055825.855    82627591.9611      -1709.311          17.196  
E33                                                                  25966310.897   136453882.229        2263.776          46.315    25966328.585   101897452.4851       1691.213          23.001  
E07                                                                                                                                  27406171.202                        2249.256          22.232  
E26                                                                  23329700.085   122598397.819         416.995          43.933                                                                  
E13                                                                  24974028.740   131239397.338       -1958.782          39.322                                                                  
E31                                                                  25568857.748   134365236.311         786.981          42.330                                                                  
C32  24211442.767   126075346.914        3094.996          41.468                                                                    24211460.754                        2332.309          24.119  
C33  25584761.738   133226569.247       -2642.226          43.478                                                                                                                                  
C36  25545285.967   133020978.266       -2674.693          39.212                                                                                                                                  
C41  23093551.467   120254164.990         106.915          39.036                                                                    23093573.652    90624138.1361         81.179          25.097  
C27  22407641.013   116682467.627       -1801.447          38.916                                                                    22407655.403                       -1355.187          19.089  
C29  25304319.384   131766224.187        2861.343          44.629                                                                    25304336.472    99299471.8411       2156.518          26.768  
C45  25344845.029   131977200.2891       -627.042          43.928                                                                                                                                  
C30  21760228.707   113311211.0201       1004.028          44.292                                                                    21760301.557                         679.467          16.753  
R21  20480582.288   109595772.294       -2224.746          40.268  
> 2025  4  1 15 18  5.9997037  0 23
G32  24000714.151   126124589.6071       3036.841          36.948    24000732.738                        2270.302          21.968  
G01  23617917.556   124113027.008        3117.574          40.450                                                                  
G02  21625993.936   113645366.238        1833.312          46.876                                                                  
G23  23118599.726   121489088.794       -3096.204          42.958    23118621.911                       -2311.854          24.985  
G08  20243672.497   106381210.525         200.098          43.806    20243684.189                         154.388          20.102  
G10  21077346.457   110762168.279        -680.158          43.923                                                                  
G27  21056250.661   110651352.579       -2301.861          43.197                                                                  
E33                                                                  25965880.395   136451618.588        2261.845          45.804    25965898.682   101895762.126        1689.078          23.465  
E07                                                                  27405575.515   144017281.8531       3007.283          31.683    27405599.798                        2246.518          22.934  
E23                                                                  24978818.824   131264589.9671      -1959.200          41.133    24978882.080    98022432.8901      -1511.156          15.800  
E08                                                                  26346336.811   138450926.7921       1208.707          30.603                                                                  
E26                                                                  23329620.939   122597982.988         411.609          43.935                                                                  
E13                                                                  24974402.281   131241358.323       -1963.014          39.170                                                                  
E31                                                                  25568709.351   134364449.769         784.585          43.208                                                                  
C32  24210848.878   126072254.663        3089.915          41.280                                                                    24210867.765                        2329.134          22.511  
C33  25585270.186   133229212.266       -2643.756          43.754                                                                                                                                  
C36  25545807.306   133023653.148       -2675.992          38.303                                                                                                                                  
C41  23093528.983   120254060.592         101.685          37.593                                                                    23093553.266                          76.289          25.334  
C27  22407989.372   116684271.997       -1807.118          38.039                                                                    22408050.529                       -1354.982          16.810  
C29  25303769.565   131763362.061        2861.325          44.872                                                                    25303784.554                        2156.143          27.253  
C45  25344964.946   131977826.857        -627.553          43.635                                                                                                                                  
C30  21760036.240   113310208.911         998.973          44.509                                                                    21760128.277                         682.880          12.294  
R21  20481008.893   109597999.637       -2229.939          39.272  
> 2025  4  1 15 18  6.9997038  0 23
G32  24000104.673   126121396.508        3192.015          36.757    24000124.460                        2383.231          23.962  
G01  23617299.384   124109753.748        3271.895          39.000                                                                  
G02  21625617.696   113643378.924        1983.166          46.720                                                                  
G23  23119162.137   121492029.599       -2943.252          43.212    23119181.024                       -2198.003          25.532  
G08  20243600.547   106380857.408         348.079          43.171                                                                  
G10  21077440.891   110762695.510        -532.079          44.444                                                                  
G27  21056660.177   110653500.533       -2151.911          43.453                                                                  
E33                                                                  25965419.014   136449201.404        2414.623          44.485    25965438.501   101893957.090        1803.531          26.685  
E23                                                                  24979164.484   131266394.486       -1807.565          41.620                                                                  
E07                                                                  27404973.532   144014117.518        3163.733          31.987    27404997.515                        2362.845          24.010  
E08                                                                  26346075.092                        1361.978          30.473                                                                  
E26                                                                  23329512.415   122597418.422         559.824          43.959                                                                  
E13                                                                  24974745.543   131243167.086       -1812.280          39.861                                                                  
E31                                                                  25568528.876   134363510.471         935.972          42.996                                                                  
C32  24210227.408   126069010.849        3241.757          41.574                                                                    24210243.597                        2444.444          21.369  
C33  25585748.955   133231701.934       -2491.762          43.938                                                                                                                                  
C36                                                                                                                                  25546302.263                       -1911.518          22.361  
C41  23093481.016   120253806.466         250.094          37.752                                                                    23093503.800    90623868.1001        188.449          25.422  
C27  22408306.252   116685926.654       -1658.683          39.050                                                                    22408383.299                       -1304.525          13.088  
C29  25303190.366   131760346.180        3014.357          45.167                                                                    25303205.955                        2271.425          27.748  
C45  25345057.282   131978300.307        -475.532          44.095                                                                                                                                  
C30  21759815.593   113309058.237        1146.046          44.374                                                                                                                                  
R21  20481403.719   109600072.721       -2076.927          40.176  
> 2025  4  1 15 18  7.9997040  0 23
G32  23999529.072   126118362.815        3034.724          37.243    23999547.359    94179517.0471       2265.968          25.433  
G01  23616707.594   124106642.554        3108.054          36.812                                                                  
G02  21625272.335   113641557.892        1815.420          44.754                                                                  
G23  23119751.829   121495133.457       -3107.012          40.852    23119771.315                       -2320.084          24.576  
G08  20243567.570   106380672.190         179.190          42.427                                                                  
G10  21077578.496   110763389.714        -699.154          42.382                                                                  
G27  21057099.373   110655813.551       -2316.183          42.121                                                                  
E33                                                                  25964991.810   136446947.573        2250.346          42.044    25965009.198                        1680.149          28.087  
E07                                                                  27404402.127   144011111.505        3007.609          32.697    27404426.111                        2244.693          23.779  
E23                                                                  24979538.625   131268363.365       -1972.665          42.271                                                                  
E08                                                                  26345847.549                        1200.341          28.385                                                                  
E26                                                                  23329437.766   122597021.921         390.444          42.939                                                                  
E13                                                                  24975119.984   131245140.165       -1976.094          38.517                                                                  
E31                                                                  25568383.476   134362736.801         767.532          42.716                                                                  
C32  24209633.220   126065926.797        3083.584          41.154                                                                    24209650.608    95003858.7531       2323.423          25.181  
C33  25586256.803   133234352.632       -2653.771          41.721                                                                                                                                  
C36  25546792.424   133028854.8501      -2683.172          35.771                                                                    25546821.204   100251184.1471      -2034.360          23.922  
C41  23093463.328   120253716.197          86.625          36.302                                                                    23093486.412    90623800.059          65.267          26.323  
C27  22408654.311   116687744.714       -1821.340          38.857                                                                                                                                  
C45  25345178.098   131978935.918        -640.592          40.773                                                                                                                                  
C29  25302639.647   131757491.163        2850.920          42.016                                                                    25302658.234    99292890.7221       2147.823          27.469  
C30  21759626.424   113308074.034         977.962          43.044                                                                                                                                  
R21  20481818.332   109602313.956       -2244.809          39.341  
> 2025  4  1 15 18  8.9997042  0 21
G32  23998954.669   126115326.812        3036.491          38.301    23998969.959                        2267.620          25.954  
G02  21624925.476   113639747.433        1809.222          44.327                                                                  
G23  23120341.820   121498243.855       -3112.674          41.784    23120362.506    90729281.2391      -2324.491          23.809  
G08  20243534.593   106380498.172         172.590          44.432                                                                  
G10  21077711.904   110764092.864        -705.127          45.399                                                                  
G27  21057537.970   110658131.756       -2318.911          41.492                                                                  
E33                                                                  25964563.707   136444701.033        2246.259          42.355    25964581.694   101890596.4681       1677.235          29.491  
E07                                                                  27403829.224                        3010.065          32.591    27403853.507                        2247.652          25.146  
E23                                                                  24979913.066   131270338.845       -1975.579          44.623                                                                  
E08                                                                  26345621.806   138447163.1471       1196.022          30.649                                                                  
E26                                                                  23329365.217   122596636.843         383.502          43.521                                                                  
E13                                                                  24975497.423   131247119.510       -1980.964          40.419                                                                  
E31                                                                  25568239.276   134361974.965         759.833          43.837                                                                  
C32  24209042.029   126062842.665        3084.753          42.000                                                                    24209058.817    95001534.481        2324.170          26.315  
C33  25586769.448   133237010.183       -2659.679          43.504                                                                                                                                  
C36  25547315.561                       -2685.225          38.176                                                                    25547341.344                       -2022.900          26.428  
C41  23093446.839   120253632.553          81.877          39.438                                                                    23093471.123                          61.801          26.667  
C27  22409005.069   116689568.357       -1824.763          40.702                                                                                                                                  
C29  25302096.423   131754644.304        2846.180          43.061                                                                    25302110.813    99290745.301        2144.360          25.467  
C30  21759440.253   113307101.635         970.650          44.836                                                                    21759531.989                         677.142          11.000  
R21  20482232.945   109604561.984       -2249.629          40.891  
> 2025  4  1 15 18  9.9997044  0 23
G32  23998375.470   126112289.170        3038.778          38.650    23998391.959    94174981.5301       2268.469          26.869  
G01  23615523.413   124100433.7731       3100.092          39.406                                                                  
G02  21624578.616   113637940.161        1805.330          40.302                                                                  
G23  23120935.709   121501356.117       -3110.730          41.636    23120954.896                       -2323.349          24.572  
G08  20243502.215   106380327.387         169.239          44.540                                                                  
G10  21077844.712   110764798.237        -705.246          45.141                                                                  
G27  21057981.063   110660450.649       -2319.074          40.743                                                                  
E33                                                                  25964136.502   136442456.978        2241.698          40.722    25964154.190   101888920.658        1673.919          28.459  
E07                                                                  27403255.121   144005090.1931       3013.035          32.364    27403280.903                        2249.187          25.510  
E23                                                                  24980289.006   131272316.164       -1979.658          44.715                                                                  
E08                                                                  26345393.963   138445966.015        1198.487          34.058                                                                  
E26                                                                  23329292.067   122596254.725         381.108          43.360                                                                  
E13                                                                  24975875.461   131249099.957       -1979.217          40.868                                                                  
E31                                                                  25568093.577   134361217.405         755.470          43.255                                                                  
C32  24208447.840   126059757.641        3084.684          41.346                                                                    24208467.627    94999209.620        2324.331          28.116  
C33  25587278.496   133239670.174       -2659.015          44.475                                                                    25587316.270                       -2012.638          20.986  
C36  25547828.506   133034227.2841      -2689.814          40.709                                                                    25547852.490                       -2026.826          26.574  
C41  23093432.150   120253550.377          83.053          40.925                                                                    23093455.234    90623675.1011         61.993          27.837  
C27  22409356.126                       -1823.734          42.513                                                                    22409395.398                       -1425.543          11.000  
C29  25301549.602   131751800.761        2841.076          42.188                                                                    25301564.891                        2141.972          24.970  
C45  25345427.526   131980231.5451       -652.245          42.206                                                                                                                                  
C30  21759253.782   113306132.578         967.620          44.346                                                                    21759310.743                         676.227          11.000  
R21  20482656.252   109606811.358       -2248.318          42.524  
> 2025  4  1 15 18 10.9997046  0 23
G32  23997792.374   126109248.662        3041.596          38.931    23997813.060                        2271.357          25.803  
G01  23614934.321   124097336.068        3095.723          38.943                                                                  
G02  21624234.154   113636137.067        1802.194          36.895                                                                  
G23  23121526.600   121504464.135       -3105.281          41.286    23121547.286                       -2319.231          24.548  
G08  20243470.137   106380159.095         168.140          44.308                                                                  
G10  21077981.117   110765501.931        -702.072          43.810                                                                  
G27  21058422.957   110662769.681       -2318.555          40.653                                                                  
E33                                                                  25963711.397   136440218.061        2237.422          40.182    25963728.185   101887248.819        1670.494          27.698  
E07                                                                  27402681.618   144002075.393        3015.996          32.697    27402706.801                        2251.555          25.225  
E23                                                                  24980667.644   131274298.091       -1983.288          43.592                                                                  
E08                                                                  26345165.222   138444764.392        1203.977          34.288                                                                  
E26                                                                  23329220.417   122595873.972         381.440          42.742                                                                  
E13                                                                  24976249.602   131251076.573       -1974.232          40.520                                                                  
E31                                                                  25567950.276   134360463.517         753.436          41.742                                                                  
C32  24207857.249   126056672.878        3084.538          41.259                                                                    24207874.038    94996884.922        2324.072          28.251  
C33                                                                                                                                  25587822.919                       -2014.299          22.655  
C36  25548345.049   133036920.168       -2695.034          40.729                                                                    25548371.430                       -2030.829          26.835  
C41  23093413.263   120253465.490          86.682          40.503                                                                    23093439.045                          65.071          27.768  
C27  22409705.384   116693214.8761      -1820.469          42.752                                                                    22409758.147                       -1429.868          11.000  
C29  25301002.780   131748961.653        2837.833          40.135                                                                    25301019.269    99286462.8571       2137.821          24.739  
C45  25345548.942   131980885.430        -654.871          40.145                                                                                                                                  
C30  21759066.412   113305165.726         966.880          43.526                                                                    21759137.762                         672.035          11.000  
R21  20483069.966   109609057.553       -2244.208          42.530  
> 2025  4  1 15 18 11.9997047  0 23
G32  23997183.496   126106048.694        3201.700          39.447    23997204.481                        2390.997          25.447  
G01  23614317.348   124094084.721        3249.934          38.626    23614334.736                        2426.844          28.543  
G02  21623866.609   113634178.842        1956.332          36.790                                                                  
G23  23122088.711   121507411.310       -2946.721          41.066    23122108.497    90736127.0031      -2200.509          25.402  
G08  20243408.380   106379834.661         323.381          45.452                                                                  
G10  21078080.648   110766046.533        -544.471          43.430                                                                  
G27  21058833.973   110664930.933       -2160.775          40.512                                                                  
E33                                                                  25963255.412   136437825.117        2391.229          38.954    25963273.100                        1785.709          27.835  
E07                                                                  27402077.536   143998901.084        3176.360          33.002    27402102.719                        2370.116          25.262  
E23                                                                  24981013.904   131276125.654       -1828.745          43.962                                                                  
E08                                                                  26344905.302   138443401.912        1363.490          34.467                                                                  
E26                                                                  23329118.188   122595336.141         536.944          43.020                                                                  
E13                                                                  24976596.462   131252892.488       -1815.004          40.249                                                                  
E31                                                                  25567776.697   134359554.454         906.940          41.958                                                                  
C32  24207233.681   126053432.193        3241.463          40.873                                                                    24207251.968                        2442.482          28.151  
C33  25588266.911   133244823.2911      -2496.775          43.731                                                                    25588297.190                       -1902.885          17.691  
C36  25548834.910   133039461.098       -2542.367          39.652                                                                    25548859.792                       -1916.113          25.262  
C41  23093366.795   120253222.221         243.591          40.300                                                                    23093391.678    90623427.7351        184.317          27.224  
C27  22410024.063   116694879.035       -1663.473          42.620                                                                    22410059.139                       -1311.956          11.000  
C29  25300428.977   131745969.453        2990.233          40.693                                                                    25300444.866                        2252.942          24.599  
C45  25345646.974   131981385.882        -502.819          39.605                                                                                                                                  
C30  21758852.660   113304043.824        1120.621          43.157                                                                                                                                  
R21  20483464.792   109611140.574       -2082.479          42.676  
> 2025  4  1 15 18 12.9997049  0 23
G32  23996607.894   126103004.205        3045.603          39.067    23996623.483                        2273.871          25.664  
G01  23613728.256   124090992.422        3092.749          37.634    23613744.445                        2308.986          29.235  
G02  21623524.545   113632377.955        1801.151          38.825                                                                  
G23  23122679.302   121510515.014       -3103.392          40.983    23122698.789                       -2317.528          26.795  
G08  20243379.000   106379666.886         168.670          44.971                                                                  
G10  21078213.456   110766746.820        -699.099          42.210                                                                  
G27  21059275.267   110667247.680       -2315.608          40.469                                                                  
E33                                                                  25962829.407   136435590.223        2235.064          37.691    25962847.695   101883793.0541       1668.735          28.830  
E07                                                                  27401503.134   143995882.243        3019.768          33.303    27401528.317                        2253.936          25.985  
E23                                                                  24981393.441   131278110.474       -1984.208          43.854                                                                  
E08                                                                  26344675.960   138442195.427        1206.950          33.557                                                                  
E26                                                                  23329044.439   122594954.416         382.730          42.186                                                                  
E13                                                                  24976971.203   131254863.827       -1970.326          39.426                                                                  
E31                                                                  25567635.194   134358803.926         750.481          41.719                                                                  
C32  24206643.389   126050345.787        3087.396          40.220                                                                    24206660.178    94992116.8031       2326.748          29.034  
C33  25588776.259   133247476.112       -2652.869          43.365                                                                    25588817.630                       -2019.024          16.422  
C36  25549351.452   133042159.403       -2698.651          38.363                                                                    25549377.534   100261226.5001      -2032.476          25.487  
C41  23093351.505   120253133.161          90.061          40.036                                                                    23093375.489                          68.512          27.995  
C27  22410374.820   116696696.873       -1816.488          42.130                                                                    22410420.689                       -1419.445          11.000  
C29  25299884.854   131743134.815        2834.537          41.068                                                                    25299901.643    99282071.6971       2135.644          25.824  
C45  25345772.887   131982044.278        -658.946          39.752                                                                    25345784.578    99462497.2341       -496.771          27.325  
C30  21758667.988   113303077.040         967.647          42.429                                                                                                                                  
R21  20483887.200   109613381.876       -2240.226          42.167  
> 2025  4  1 15 18 13.9997050  0 23
G32  23995997.517   126099801.266        3201.972          38.899    23996015.204    94165655.9061       2392.417          26.024  
G01  23613109.484                        3253.449          38.915    23613126.872    92663107.4301       2427.018          27.947  
G02  21623147.706                        1958.734          39.666                                                                  
G23  23123239.914   121513460.330       -2945.321          43.099    23123257.602    90740644.0841      -2198.819          26.772  
G08  20243315.744                         328.533          44.705                                                                  
G10  21078317.784   110767288.021        -541.022          41.860                                                                  
G27  21059685.983   110669405.408       -2158.053          42.406                                                                  
E33                                                                  25962374.922   136433197.6441       2393.021          37.091    25962392.010   101882006.326        1786.210          28.836  
E07                                                                  27400899.652   143992704.962        3176.245          33.979    27400923.935                        2372.771          25.947  
E23                                                                  24981740.301   131279937.102       -1827.076          44.513                                                                  
E08                                                                  26344415.441   138440830.513        1364.364          33.456                                                                  
E26                                                                  23328942.509   122594413.5471        541.932          42.515                                                                  
E13                                                                  24977315.964   131256675.995       -1812.182          39.233                                                                  
E31                                                                  25567460.715   134357895.8461        908.541          42.796                                                                  
C32  24206018.922   126047102.062        3243.471          40.914                                                                    24206036.610                        2444.032          27.785  
C33  25589258.625                       -2496.777          43.768                                                                    25589256.826                       -1901.590          19.591  
C36  25549840.414                       -2540.444          40.214                                                                    25549866.196   100263142.737       -1916.822          23.818  
C41  23093302.639   120252886.590         246.615          39.761                                                                    23093326.922    90623174.8301        186.203          27.717  
C27  22410693.200                       -1657.262          42.226                                                                    22410726.177                       -1301.800          11.000  
C45  25345872.717                        -503.479          42.522                                                                    25345881.411    99462876.123        -378.461          27.619  
C29  25299309.552                        2991.606          42.488                                                                    25299327.540    99279817.911        2254.153          27.705  
C30  21758449.739                        1126.019          43.271                                                                                                                                  
R21  20484273.333   109615461.183       -2079.246          41.154  
> 2025  4  1 15 18 14.9997051  0 23
G32  23995388.039   126096597.3691       3205.295          38.779    23995405.726                        2392.420          27.241  
G01  23612489.214                        3247.535          40.221    23612509.000                        2424.390          27.546  
G02  21622775.064                        1956.075          38.741                                                                  
G23  23123799.027   121516404.2091      -2941.457          43.517    23123818.214                       -2198.558          26.355  
G08  20243250.389   106379014.8971        324.664          44.938                                                                  
G10  21078421.213   110767829.2141       -543.310          40.467                                                                  
G27  21060095.499   110671563.6641      -2159.507          43.209                                                                  
E33                                                                  25961919.237   136430807.1061       2389.051          36.361    25961936.325                        1783.849          27.898  
E07                                                                  27400294.671   143989526.585        3177.807          33.821    27400318.954   107524822.6771       2373.640          25.807  
E23                                                                  24982088.960   131281765.898       -1831.212          43.628                                                                  
E08                                                                  26344155.521   138439464.160        1366.398          33.900                                                                  
E26                                                                  23328837.882   122593873.5041        538.369          42.155                                                                  
E13                                                                  24977658.627   131258486.8891      -1810.596          38.475                                                                  
E31                                                                  25567288.634   134356989.3811        904.803          42.762                                                                  
C32  24205395.054   126043858.948        3241.811          40.200                                                                    24205413.641                        2442.359          26.952  
C33  25589735.595                       -2495.641          43.205                                                                    25589740.391                       -1898.751          14.539  
C36  25550327.576                       -2546.561          39.814                                                                    25550355.757                       -1920.004          21.552  
C41  23093257.071   120252639.615         246.164          39.356                                                                    23093280.155    90622988.808         185.087          26.556  
C27  22411011.580                       -1661.175          42.611                                                                    22411057.448                       -1300.581          11.000  
C29  25298737.249                        2986.786          42.620                                                                    25298752.538                        2251.148          27.707  
C45  25345968.651                        -505.705          42.817                                                                    25345979.444                        -381.374          27.590  
C30  21758235.687                        1121.015          43.318                                                                                                                                  
R21  20484657.966   109617539.728       -2079.253          40.026  
> 2025  4  1 15 18 15.9997053  0 23
G32  23994808.540                        3045.326          38.409    23994825.028                        2273.732          28.046  
G01  23611901.621                        3082.014          40.836    23611923.206                        2301.235          26.472  
G02  21622434.800                        1787.432          38.466                                                                  
G23  23124389.618   121519505.2321      -3101.050          43.487    23124409.105                       -2315.724          26.350  
G08  20243221.010   106378854.3431        156.851          45.930                                                                  
G10  21078555.819                        -703.524          39.771                                                                  
G27  21060536.494   110673884.5891      -2323.282          44.020                                                                  
E33                                                                                                                                  25961512.719                        1659.776          28.536  
E23                                                                  24982466.099   131283759.078       -1997.472          43.293                                                                  
E07                                                                  27399719.369   143986505.925        3020.791          33.937    27399743.952   107522567.043        2255.828          26.559  
E08                                                                  26343926.479   138438255.361        1209.191          34.446                                                                  
E26                                                                  23328767.730   122593497.3651        371.833          41.293                                                                  
E13                                                                  24978037.265   131260456.691       -1970.363          39.099                                                                  
E31                                                                  25567147.732   134356245.7301        740.187          42.879                                                                  
C32  24204802.664   126040775.745        3081.020          40.071                                                                    24204821.251                        2322.043          26.899  
C33  25590243.743   133255117.6941      -2649.003          43.328                                                                    25590248.540                       -2015.900          12.582  
C36  25550850.115                       -2712.160          40.098                                                                    25550874.997                       -2038.613          20.987  
C41  23093238.484   120252551.464          86.658          40.245                                                                    23093262.767    90622922.332          65.063          27.606  
C27  22411362.337                       -1822.515          42.286                                                                                                                                  
C29  25298193.725                        2826.898          42.954                                                                    25298209.314                        2129.641          28.253  
C45  25346097.562                        -667.392          42.540                                                                    25346106.556                        -503.080          28.053  
C30  21758051.614                         956.386          43.561                                                                    21758093.585                         670.473          11.000  
R21  20485081.273   109619781.009       -2242.188          40.236  
> 2025  4  1 15 18 16.9997054  0 23
G32  23994199.661   126090349.7471       3199.823          38.431    23994216.749                        2389.734          27.281  
G01  23611282.249   124078167.9791       3233.340          40.124    23611306.832    92655961.2411       2415.332          25.079  
G02  21622067.254                        1940.220          39.663                                                                  
G23  23124949.630   121522448.136       -2942.133          42.765    23124968.817                       -2196.624          26.180  
G08  20243164.949                         305.033          46.339                                                                  
G10  21078655.950                        -553.145          38.312                                                                  
G27  21060950.807   110676054.620       -2172.161          43.784                                                                  
E33                                                                                                                                  25961060.932                        1774.886          28.312  
E07                                                                  27399114.388   143983328.565        3175.486          34.195    27399138.371   107520194.439        2371.234          27.204  
E23                                                                  24982819.254   131285602.961       -1846.231          43.025                                                                  
E08                                                                  26343666.859   138436889.038        1366.491          34.737                                                                  
E26                                                                  23328667.599   122592971.295         524.568          41.698                                                                  
E13                                                                  24978380.227   131262270.868       -1814.457          39.282                                                                  
E31                                                                  25566977.150   134355350.2241        893.698          42.601                                                                  
C32  24204182.393   126037541.607        3231.611          40.490                                                                    24204200.681                        2435.508          26.257  
C33  25590725.509                       -2491.687          42.642                                                                    25590733.604                       -1900.065          11.000  
C36  25551337.577                       -2559.336          39.208                                                                    25551353.466                       -1920.607          19.334  
C41  23093193.515   120252310.677         239.882          39.923                                                                    23093217.198    90622740.932         180.387          27.249  
C27  22411680.117   116703502.8181      -1668.642          41.103                                                                                                                                  
C29  25297622.920                        2979.920          42.529                                                                    25297637.610    99273187.8761       2245.489          28.161  
C45  25346194.395                        -512.824          40.631                                                                    25346204.887    99464143.9461       -386.282          28.730  
C30  21757838.762                        1107.539          42.841                                                                                                                                  
R21  20485468.605   109621864.996       -2084.564          40.288  
> 2025  4  1 15 18 17.9997056  0 22
G32  23993618.364   126087307.3801       3043.048          38.483    23993637.850                        2271.216          27.322  
G01  23610699.153   124075091.816        3074.137          42.820    23610719.839                        2295.494          26.186  
G02  21621726.690                        1781.463          40.387                                                                  
G23  23125539.022   121525547.461       -3099.793          43.964    23125557.010    90749670.1971      -2314.797          24.161  
G08  20243133.470   106378396.4401        146.493          46.562                                                                  
G10  21078796.253   110769792.7401       -711.290          40.323                                                                  
G27  21061393.001   110678385.904       -2333.749          41.885                                                                  
E33                                                                                                                                  25960638.824   101875126.6831       1654.144          29.753  
E23                                                                  24983199.091   131287608.592       -2008.324          44.293                                                                  
E07                                                                  27398539.386   143980310.111        3018.577          33.882    27398563.369   107517940.332        2254.101          26.677  
E08                                                                  26343437.218   138435680.172        1208.567          35.891                                                                  
E26                                                                  23328597.448   122592605.8571        364.261          42.601                                                                  
E13                                                                  24978757.366   131264242.928       -1972.857          40.797                                                                  
C32  24203593.001   126034467.080        3073.030          41.487                                                                    24203610.389    94980150.5121       2316.637          28.650  
C33  25591232.758   133260257.9791      -2647.945          44.070                                                                    25591239.354                       -2012.718          11.000  
C36  25551861.315                       -2716.970          40.871                                                                    25551870.908                       -2056.544          16.287  
C41  23093178.225   120252227.593          81.608          40.996                                                                    23093199.511    90622678.243          61.005          28.117  
C27  22412030.274                       -1827.220          41.464                                                                                                                                  
C29  25297077.598                        2821.226          42.612                                                                    25297094.086    99271060.274        2126.814          26.211  
C45  25346323.306   131984899.3611       -672.047          41.069                                                                    25346333.498    99464648.729        -506.155          27.545  
C30  21757655.588   113297811.1861        946.379          41.937                                                                    21757718.845                         669.234          12.904  
R21  20485888.914   109624110.524       -2246.996          41.589  
> 2025  4  1 15 18 18.9997057  0 23
G32  23993011.584   126084107.9061       3199.058          37.922    23993028.972    94153937.4271       2389.747          27.515  
G01  23610083.679   124071861.046        3230.336          43.346    23610105.264                        2411.856          25.934  
G02  21621359.744   113621008.2531       1933.244          42.000                                                                  
G23  23126097.836   121528491.041       -2945.331          43.061    23126115.823    90751868.312       -2199.358          23.825  
G08  20243078.009   106378095.3571        300.159          45.626                                                                  
G10  21078897.883   110770349.2571       -557.292          41.927                                                                  
G27  21061805.815   110680562.8461      -2175.806          39.564                                                                  
E33                                                                                                                                  25960188.236   101873355.575        1770.743          29.970  
E07                                                                  27397934.704                        3174.236          33.153    27397960.786                        2372.758          26.532  
E23                                                                  24983551.947   131289460.182       -1852.490          44.148                                                                  
E08                                                                  26343175.199   138434315.308        1363.689          37.857                                                                  
E26                                                                  23328498.816   122592087.4971        515.807          42.624                                                                  
E13                                                                  24979101.228   131266059.828       -1818.310          41.683                                                                  
E31                                                                  25566666.565   134353724.3611        887.309          41.589                                                                  
C32  24202972.431   126031238.061        3229.212          40.738                                                                    24202991.018    94977717.131        2433.631          29.979  
C33  25591710.927   133262750.849       -2494.772          44.684                                                                    25591722.020                       -1893.263          11.000  
C36  25552351.775                       -2561.352          41.974                                                                    25552353.274                       -1937.146          13.992  
C41  23093132.357   120251991.435         234.822          41.812                                                                    23093155.141    90622500.267         177.146          28.456  
C27  22412354.350                       -1675.010          42.166                                                                                                                                  
C45  25346423.736                        -518.552          39.634                                                                    25346432.130    99465038.198        -390.507          27.226  
C29  25296508.292                        2973.916          41.592                                                                    25296523.881    99268817.063        2242.831          24.473  
C30  21757445.434   113296710.170        1099.250          40.501                                                                                                                                  
R21  20486274.747   109626198.469       -2089.362          43.077  
> 2025  4  1 15 18 19.9997059  0 23
G32  23992428.487   126081064.6401       3045.774          37.639    23992449.473    94151664.956        2273.712          27.331  
G01  23609500.283                        3071.792          43.315    23609520.669    92648957.1341       2292.641          25.388  
G02  21621021.878                        1771.231          42.925                                                                  
G23  23126690.825   121531594.889       -3105.094          42.513    23126710.012                       -2318.976          25.654  
G08  20243051.627   106377955.8031        136.492          45.695                                                                  
G10  21079036.087                        -718.225          41.161                                                                  
G27  21062252.806                       -2335.754          40.251                                                                  
E33                                                                                                                                  25959767.627                        1650.374          28.502  
E07                                                                  27397359.103                        3017.995          32.708    27397384.286   107513313.0401       2256.655          27.077  
E23                                                                  24983935.681   131291471.393       -2012.774          44.481                                                                  
E08                                                                  26342947.357   138433109.638        1205.133          37.778                                                                  
E26                                                                  23328431.063                         354.963          42.412                                                                  
E13                                                                  24979478.367   131268036.419       -1977.448          41.514                                                                  
E31                                                                  25566527.761                         725.081          41.989    25566561.937                         508.356          17.915  
C32  24202379.441   126028164.572        3074.062          41.099                                                                    24202400.727    94975401.119        2315.461          29.906  
C33  25592219.675   133265402.830       -2652.912          44.922                                                                    25592231.966                       -2010.908          11.000  
C36  25552874.313                       -2719.586          40.869                                                                    25552880.009                       -2058.812          11.000  
C41  23093118.866   120251913.951          76.184          42.355                                                                    23093140.452    90622441.862          57.637          28.166  
C27  22412705.407                       -1833.541          42.661                                                                    22412735.086                       -1415.787          15.081  
C29  25295966.867                        2814.762          40.501                                                                    25295981.257    99266693.796        2121.125          23.945  
C45  25346553.246                        -681.027          38.870                                                                    25346562.240                        -512.327          27.425  
C30  21757263.460   113295769.396         938.118          39.799                                                                                                                                  
R21  20486702.251   109628449.317       -2251.975          43.890  
> 2025  4  1 15 18 20.9997060  0 23
G32  23991821.108   126077863.1541       3201.973          38.989    23991841.494                        2390.901          27.437  
G01  23608887.207   124065559.9551       3228.597          42.940    23608906.394                        2412.494          25.381  
G02  21620653.733                        1929.928          42.947                                                                  
G23  23127249.338   121534543.378       -2949.442          43.190    23127271.223                       -2201.872          26.884  
G08  20242993.767   106377660.5661        295.315          46.216                                                                  
G10  21079143.712                        -562.218          40.204                                                                  
G27  21062665.920   110685077.1051      -2178.782          42.067                                                                  
E33                                                                  25959298.452                        2368.880          36.539    25959315.840                        1769.310          27.649  
E07                                                                  27396756.220   143970934.3471       3179.162          34.265    27396781.103   107510938.806        2375.556          27.162  
E23                                                                  24984287.038   131293325.450       -1853.912          45.856                                                                  
E08                                                                  26342689.536   138431747.834        1361.172          37.330                                                                  
E26                                                                  23328333.930   122591217.7791        512.859          42.502                                                                  
E13                                                                  24979826.126   131269856.868       -1820.719          41.105                                                                  
E31                                                                  25566361.976   134352114.0881        881.839          43.374                                                                  
C32  24201762.169   126024934.013        3231.097          43.436                                                                    24201780.156                        2434.987          27.978  
C33  25592698.743   133267901.352       -2499.588          45.048                                                                    25592714.333                       -1893.263          11.000  
C36  25553365.973                       -2563.097          39.693                                                                    25553366.872                       -1939.147          12.634  
C41  23093072.399   120251681.930         231.651          42.305                                                                    23093096.082    90622266.992         175.030          28.125  
C27  22413026.485                       -1674.774          42.591                                                                    22413062.460                       -1294.883          11.000  
C45  25346653.977                        -525.505          39.482                                                                    25346662.671    99465943.1381       -394.891          27.792  
C29  25295395.462                        2970.339          41.934                                                                    25295411.051                        2239.973          25.425  
C30  21757055.404                        1094.658          39.758                                                                                                                                  
R21  20487091.082   109630541.236       -2092.192          43.597  
> 2025  4  1 15 18 21.9997062  0 22
G32  23991241.009   126074818.5311       3044.292          38.330    23991260.196                        2273.029          28.218  
G01  23608302.013   124062489.4061       3071.247          43.305    23608322.998    92644252.9871       2293.061          26.176  
G02  21620316.766                        1769.930          43.211                                                                  
G23  23127842.628   121537652.219       -3110.993          42.622    23127864.213    90758709.3691      -2322.789          25.981  
G08  20242970.083   106377525.5781        135.598          45.426                                                                  
G10  21079279.518                        -723.204          40.224                                                                  
G27  21063113.510   110687414.5811      -2337.518          40.876                                                                  
E33                                                                  25958877.543                        2209.205          37.614    25958895.231                        1650.751          26.903  
E07                                                                  27396182.418   143967911.697        3021.641          33.969    27396205.801                        2257.337          28.256  
E23                                                                  24984669.273   131295337.945       -2013.070          45.590                                                                  
E08                                                                                                                                  26342476.383   103373535.2871        879.428          21.081  
E26                                                                  23328265.578   122590865.3831        350.371          41.235                                                                  
E13                                                                  24980201.466   131271837.070       -1982.302          41.058                                                                  
C32  24201170.079   126021858.995        3074.335          42.524                                                                    24201190.165    94970649.0001       2317.211          27.470  
C33  25593212.288   133270559.033       -2660.036          45.311                                                                    25593229.976                       -2010.908          11.000  
C36  25553889.410                       -2719.132          40.370                                                                    25553891.809                       -2059.688          11.000  
C41  23093058.908   120251608.447          71.652          42.682                                                                    23093082.292    90622211.603          54.218          28.258  
C27  22413378.441                       -1832.886          42.398                                                                    22413407.821                       -1415.101          11.000  
C45  25346784.686                        -684.599          39.010                                                                    25346793.680    99466457.550        -515.215          27.194  
C29  25294857.035                        2812.050          41.136                                                                    25294872.624    99262333.0231       2120.641          24.066  
C30  21756873.430   113293738.5061        934.590          39.548                                                                                                                                  
R21  20487512.590   109632795.898       -2256.532          43.937  
> 2025  4  1 15 18 22.9997063  0 23
G32  23990630.632   126071616.3191       3202.592          36.212    23990651.018                        2391.874          27.826  
G01  23607686.838   124059260.3221       3230.078          43.984    23607707.824    92641841.834        2409.177          28.083  
G02  21619953.118                        1924.850          43.631                                                                  
G23  23128405.338   121540606.343       -2954.995          42.260    23128424.825    90760915.381       -2206.386          26.070  
G08  20242912.223   106377234.3241        288.978          44.968                                                                  
G10  21079387.144   110772923.4321       -567.969          41.993                                                                  
G27  21063526.624   110689594.9511      -2180.365          40.158                                                                  
E33                                                                  25958426.655   136412455.0571       2368.409          38.261    25958445.542   101866516.4481       1767.047          26.025  
E07                                                                  27395576.837   143964731.115        3181.550          32.734    27395599.921                        2376.291          27.695  
E23                                                                  24985023.928   131297192.3561      -1855.519          44.751                                                                  
E08                                                                  26342199.375   138429188.0941       1357.030          37.513    26342219.761                        1011.957          20.179  
E26                                                                  23328168.145   122590356.7331        507.497          39.228                                                                  
E13                                                                  24980548.626   131273661.832       -1825.693          40.879                                                                  
E31                                                                  25566056.787   134350514.0071        877.053          42.382                                                                  
C32  24200552.506   126018627.022        3231.921          40.584                                                                    24200568.395                        2436.463          27.310  
C33  25593691.956                       -2505.621          45.439                                                                    25593712.941                       -1895.702          11.000  
C36  25554381.370                       -2562.222          40.266                                                                    25554383.768                       -1942.043          11.000  
C41  23093014.239   120251381.217         226.184          43.147                                                                    23093037.023    90622040.391         170.126          28.077  
C27  22413700.418                       -1680.967          42.784                                                                    22413738.492                       -1296.922          11.000  
C45  25346884.817                        -529.475          39.189                                                                    25346897.108                        -398.410          26.601  
C29  25294284.431                        2968.612          39.148                                                                    25294300.320                        2240.206          22.110  
C30  21756664.774   113292647.786        1088.166          40.324                                                                                                                                  
R21  20487907.717   109634892.403       -2097.688          44.371  
> 2025  4  1 15 18 23.9997065  0 23
G32                                                                  23990073.018                        2273.609          27.744  
G01  23607102.243   124056190.0421       3070.501          44.385    23607124.128                        2292.726          31.118  
G02  21619614.652   113611847.6831       1765.897          44.229                                                                  
G23  23128996.829   121543719.839       -3113.252          42.151    23129018.114    90763240.449       -2325.589          25.993  
G08  20242890.938   106377103.4671        129.235          44.552                                                                  
G10  21079526.248                        -727.387          43.117                                                                  
G27  21063973.315   110691934.6591      -2341.220          41.036                                                                  
E33                                                                  25958006.646                        2208.401          38.590    25958024.334                        1649.419          27.260  
E23                                                                  24985407.362   131299206.0111      -2014.454          44.473                                                                  
E07                                                                  27394991.642                        3024.973          32.124    27395023.420   107504049.0291       2257.818          28.016  
E08                                                                                                                                  26341991.019                         894.611          21.452  
E26                                                                  23328103.990   122590008.3401        347.628          37.375                                                                  
E13                                                                  24980926.365   131275645.798       -1983.639          40.755                                                                  
E31                                                                  25565919.482   134349796.1121        716.475          43.199                                                                  
C32  24199958.617   126015551.723        3075.586          40.736                                                                    24199978.104                        2318.434          27.010  
C33  25594202.502                       -2661.760          45.192                                                                    25594225.586                       -2013.347          15.216  
C36  25554903.309                       -2722.759          38.345                                                                    25554917.399                       -2058.202          15.395  
C41  23093001.348   120251312.236          68.805          43.136                                                                    23093025.331                          51.641          28.307  
C27  22414053.574                       -1835.291          43.093                                                                    22414081.454                       -1414.567          14.316  
C45  25347018.524                        -686.219          39.896                                                                    25347029.617    99467372.6451       -517.701          27.591  
C29  25293744.805                        2809.541          38.428                                                                    25293759.495    99257974.7901       2119.438          23.195  
C30  21756486.698   113291715.909         931.706          41.640                                                                    21756536.763                         664.699          11.000  
R21  20488324.128   109637151.252       -2258.689          43.788  
